{"type":"FeatureCollection","features":[{"type":"Feature","geometry":{"type":"Point","coordinates":[2.3453001,48.8657876]},"properties":{"id":"halal-286696657","name":"Mama Nissa","layer":"halal","type":"restaurant","dietary":["halal"],"indoor":true,"familyFriendly":true,"tags":["halal","algerian;mediterranean","restaurant"],"source":"openstreetmap/overpass"}},{"type":"Feature","geometry":{"type":"Point","coordinates":[2.3706369,48.8822311]},"properties":{"id":"halal-294162536","name":"McDonald's","layer":"halal","type":"fast_food","dietary":["halal"],"indoor":true,"familyFriendly":true,"tags":["halal","burger","fast_food"],"source":"openstreetmap/overpass"}},{"type":"Feature","geometry":{"type":"Point","coordinates":[2.3781979,48.8640484]},"properties":{"id":"halal-326334714","name":"Lidl","layer":"halal","type":"restaurant","address":"83 Rue Saint-Maur","dietary":["halal"],"indoor":true,"familyFriendly":true,"tags":["halal"],"source":"openstreetmap/overpass"}},{"type":"Feature","geometry":{"type":"Point","coordinates":[2.3662734,48.8816147]},"properties":{"id":"halal-327045521","name":"Boucherie Louis Blanc","layer":"halal","type":"restaurant","dietary":["halal"],"indoor":true,"familyFriendly":true,"tags":["halal"],"source":"openstreetmap/overpass"}},{"type":"Feature","geometry":{"type":"Point","coordinates":[2.3755427,48.8742283]},"properties":{"id":"halal-329423314","name":"Aux Bons Amis","layer":"halal","type":"restaurant","dietary":["halal"],"indoor":true,"familyFriendly":true,"tags":["halal","french;mediterranean","restaurant"],"source":"openstreetmap/overpass"}},{"type":"Feature","geometry":{"type":"Point","coordinates":[2.3806988,48.845564]},"properties":{"id":"halal-428031330","name":"Le Calumet","layer":"halal","type":"cafe","address":"Rue de Charenton","dietary":["halal"],"indoor":true,"familyFriendly":true,"tags":["halal","cafe"],"source":"openstreetmap/overpass"}},{"type":"Feature","geometry":{"type":"Point","coordinates":[2.3805088,48.8480388]},"properties":{"id":"halal-428039924","name":"Le Crozatier","layer":"halal","type":"cafe;bar;gambling","address":"43 Rue Crozatier","dietary":["halal"],"indoor":true,"familyFriendly":true,"tags":["halal","cafe;bar;gambling"],"source":"openstreetmap/overpass"}},{"type":"Feature","geometry":{"type":"Point","coordinates":[2.3787226,48.8462601]},"properties":{"id":"halal-428158410","name":"Enzo Dürüm","layer":"halal","type":"fast_food","dietary":["halal"],"indoor":true,"familyFriendly":true,"tags":["halal","kebab","fast_food"],"source":"openstreetmap/overpass"}},{"type":"Feature","geometry":{"type":"Point","coordinates":[2.3786596,48.8462483]},"properties":{"id":"halal-428158966","name":"Miyako","layer":"halal","type":"restaurant","dietary":["halal"],"indoor":true,"familyFriendly":true,"tags":["halal","sushi","restaurant"],"source":"openstreetmap/overpass"}},{"type":"Feature","geometry":{"type":"Point","coordinates":[2.3754482,48.8741633]},"properties":{"id":"halal-467120021","name":"Viet Siam","layer":"halal","type":"restaurant","dietary":["halal"],"indoor":true,"familyFriendly":true,"tags":["halal","asian","restaurant"],"source":"openstreetmap/overpass"}},{"type":"Feature","geometry":{"type":"Point","coordinates":[2.4015288,48.8519828]},"properties":{"id":"halal-493792227","name":"La bonne bidoche","layer":"halal","type":"restaurant","dietary":["halal"],"indoor":true,"familyFriendly":true,"tags":["halal"],"source":"openstreetmap/overpass"}},{"type":"Feature","geometry":{"type":"Point","coordinates":[2.3950798,48.8362289]},"properties":{"id":"halal-500255597","name":"Maison Chouette","layer":"halal","type":"fast_food","dietary":["halal"],"indoor":true,"familyFriendly":true,"tags":["halal","fast_food"],"source":"openstreetmap/overpass"}},{"type":"Feature","geometry":{"type":"Point","coordinates":[2.3825955,48.8450336]},"properties":{"id":"halal-508588057","name":"Toto Sushi","layer":"halal","type":"restaurant","dietary":["halal"],"indoor":true,"familyFriendly":true,"tags":["halal","sushi","restaurant"],"source":"openstreetmap/overpass"}},{"type":"Feature","geometry":{"type":"Point","coordinates":[2.3824558,48.8466891]},"properties":{"id":"halal-508588125","name":"Sushi Bar","layer":"halal","type":"restaurant","dietary":["halal"],"indoor":true,"familyFriendly":true,"tags":["halal","sushi","restaurant"],"source":"openstreetmap/overpass"}},{"type":"Feature","geometry":{"type":"Point","coordinates":[2.3736366,48.8460316]},"properties":{"id":"halal-530272912","name":"Les Deux Savoie","layer":"halal","type":"cafe","address":"23 bis Boulevard Diderot","dietary":["halal"],"indoor":true,"familyFriendly":true,"tags":["halal","savoyarde","cafe"],"source":"openstreetmap/overpass"}},{"type":"Feature","geometry":{"type":"Point","coordinates":[2.3788828,48.8497475]},"properties":{"id":"halal-531497617","name":"Paya Thaï Aligre","layer":"halal","type":"restaurant","address":"30 Rue d'Aligre","dietary":["halal"],"indoor":true,"familyFriendly":true,"tags":["halal","thai","restaurant"],"source":"openstreetmap/overpass"}},{"type":"Feature","geometry":{"type":"Point","coordinates":[2.3436484,48.8201447]},"properties":{"id":"halal-549993118","name":"Franprix","layer":"halal","type":"restaurant","address":"94 Rue de l'Amiral Mouchez","dietary":["halal"],"indoor":true,"familyFriendly":true,"tags":["halal"],"source":"openstreetmap/overpass"}},{"type":"Feature","geometry":{"type":"Point","coordinates":[2.3546532,48.8576092]},"properties":{"id":"halal-599513428","name":"Caffé Vito","layer":"halal","type":"restaurant","address":"12 Rue des Archives","dietary":["halal"],"indoor":true,"familyFriendly":true,"tags":["halal","italian","restaurant"],"source":"openstreetmap/overpass"}},{"type":"Feature","geometry":{"type":"Point","coordinates":[2.3754889,48.873871]},"properties":{"id":"halal-667342363","name":"Wing Seng","layer":"halal","type":"restaurant","address":"2 Rue Rébeval","dietary":["halal"],"indoor":true,"familyFriendly":true,"tags":["halal"],"source":"openstreetmap/overpass"}},{"type":"Feature","geometry":{"type":"Point","coordinates":[2.3396928,48.895866]},"properties":{"id":"halal-669803007","name":"La Renaissance","layer":"halal","type":"restaurant","address":"112 Rue Championnet","dietary":["halal"],"indoor":true,"familyFriendly":true,"tags":["halal","french","restaurant"],"source":"openstreetmap/overpass"}},{"type":"Feature","geometry":{"type":"Point","coordinates":[2.3482192,48.8598999]},"properties":{"id":"halal-677967628","name":"Sama Beyrouth","layer":"halal","type":"fast_food","address":"26 Rue Saint-Denis","dietary":["halal"],"indoor":true,"familyFriendly":true,"tags":["halal","international","fast_food"],"source":"openstreetmap/overpass"}},{"type":"Feature","geometry":{"type":"Point","coordinates":[2.3778604,48.8722076]},"properties":{"id":"halal-685532229","name":"Tang Freres Gourmet","layer":"halal","type":"fast_food","address":"8 Rue de Belleville","dietary":["halal"],"indoor":true,"familyFriendly":true,"tags":["halal","chinese","fast_food"],"source":"openstreetmap/overpass"}},{"type":"Feature","geometry":{"type":"Point","coordinates":[2.3502995,48.8644934]},"properties":{"id":"halal-691721089","name":"La Boule Maître Kebabier","layer":"halal","type":"fast_food","address":"118 Rue Saint-Denis","dietary":["halal"],"indoor":true,"familyFriendly":true,"tags":["halal","kebab","fast_food"],"source":"openstreetmap/overpass"}},{"type":"Feature","geometry":{"type":"Point","coordinates":[2.3619516,48.8622747]},"properties":{"id":"halal-713913233","name":"Chez Alain Miam Miam","layer":"halal","type":"cafe","address":"26 Rue Charlot","dietary":["halal"],"indoor":true,"familyFriendly":true,"tags":["halal","cafe"],"source":"openstreetmap/overpass"}},{"type":"Feature","geometry":{"type":"Point","coordinates":[2.3513197,48.863552]},"properties":{"id":"halal-722231692","name":"Euro Fried Chicken","layer":"halal","type":"fast_food","address":"60 Boulevard de Sébastopol","dietary":["halal"],"indoor":true,"familyFriendly":true,"tags":["halal","chicken","fast_food"],"source":"openstreetmap/overpass"}},{"type":"Feature","geometry":{"type":"Point","coordinates":[2.3556159,48.8417641]},"properties":{"id":"halal-739770210","name":"Restaurant de La Mosquée de Paris","layer":"halal","type":"restaurant","dietary":["halal"],"indoor":true,"familyFriendly":true,"tags":["halal","arab","restaurant"],"source":"openstreetmap/overpass"}},{"type":"Feature","geometry":{"type":"Point","coordinates":[2.3060438,48.8735884]},"properties":{"id":"halal-839922895","name":"Yemeni","layer":"halal","type":"restaurant","address":"33 Rue de Berri","dietary":["halal"],"indoor":true,"familyFriendly":true,"tags":["halal","steak_house;dessert;oriental","restaurant"],"source":"openstreetmap/overpass"}},{"type":"Feature","geometry":{"type":"Point","coordinates":[2.3050032,48.8686735]},"properties":{"id":"halal-840870728","name":"Le Confidentiel","layer":"halal","type":"restaurant","address":"6 Rue Robert Estienne","dietary":["halal"],"indoor":true,"familyFriendly":true,"tags":["halal","restaurant"],"source":"openstreetmap/overpass"}},{"type":"Feature","geometry":{"type":"Point","coordinates":[2.363611,48.8821165]},"properties":{"id":"halal-881969027","name":"La Bulle","layer":"halal","type":"restaurant","dietary":["halal"],"indoor":true,"familyFriendly":true,"tags":["halal","traditional;french","restaurant"],"source":"openstreetmap/overpass"}},{"type":"Feature","geometry":{"type":"Point","coordinates":[2.3812047,48.8286476]},"properties":{"id":"halal-913550860","name":"Naan & Curry","layer":"halal","type":"fast_food","dietary":["halal"],"indoor":true,"familyFriendly":true,"tags":["halal","fast_food"],"source":"openstreetmap/overpass"}},{"type":"Feature","geometry":{"type":"Point","coordinates":[2.3805802,48.8283892]},"properties":{"id":"halal-913551573","name":"Fø Pizza","layer":"halal","type":"restaurant","address":"25 Rue Françoise Dolto","dietary":["halal"],"indoor":true,"familyFriendly":true,"tags":["halal","pizza","restaurant"],"source":"openstreetmap/overpass"}},{"type":"Feature","geometry":{"type":"Point","coordinates":[2.3790185,48.8499058]},"properties":{"id":"halal-940712745","name":"Sabah Épicerie","layer":"halal","type":"restaurant","dietary":["halal"],"indoor":true,"familyFriendly":true,"tags":["halal"],"source":"openstreetmap/overpass"}},{"type":"Feature","geometry":{"type":"Point","coordinates":[2.3523362,48.8875654]},"properties":{"id":"halal-1015830973","name":"Navel","layer":"halal","type":"restaurant","dietary":["halal"],"indoor":true,"familyFriendly":true,"tags":["halal","indian","restaurant"],"source":"openstreetmap/overpass"}},{"type":"Feature","geometry":{"type":"Point","coordinates":[2.3728219,48.8704546]},"properties":{"id":"halal-1020780018","name":"L'As du goût","layer":"halal","type":"restaurant","dietary":["halal"],"indoor":true,"familyFriendly":true,"tags":["halal"],"source":"openstreetmap/overpass"}},{"type":"Feature","geometry":{"type":"Point","coordinates":[2.3732019,48.8705763]},"properties":{"id":"halal-1023168036","name":"Boucherie Tizi Ouzou","layer":"halal","type":"restaurant","dietary":["halal"],"indoor":true,"familyFriendly":true,"tags":["halal"],"source":"openstreetmap/overpass"}},{"type":"Feature","geometry":{"type":"Point","coordinates":[2.3742249,48.870998]},"properties":{"id":"halal-1023168281","name":"Pivert","layer":"halal","type":"restaurant","dietary":["halal"],"indoor":true,"familyFriendly":true,"tags":["halal"],"source":"openstreetmap/overpass"}},{"type":"Feature","geometry":{"type":"Point","coordinates":[2.289438,48.894556]},"properties":{"id":"halal-1111551191","name":"Le Bistrot de Lolotte","layer":"halal","type":"restaurant","dietary":["halal"],"indoor":true,"familyFriendly":true,"tags":["halal","restaurant"],"source":"openstreetmap/overpass"}},{"type":"Feature","geometry":{"type":"Point","coordinates":[2.2905716,48.8934514]},"properties":{"id":"halal-1111551208","name":"Gougouche","layer":"halal","type":"restaurant","dietary":["halal"],"indoor":true,"familyFriendly":true,"tags":["halal"],"source":"openstreetmap/overpass"}},{"type":"Feature","geometry":{"type":"Point","coordinates":[2.3809808,48.8465108]},"properties":{"id":"halal-1197653504","name":"Chez Sevin","layer":"halal","type":"fast_food","dietary":["halal"],"indoor":true,"familyFriendly":true,"tags":["halal","kebab","fast_food"],"source":"openstreetmap/overpass"}},{"type":"Feature","geometry":{"type":"Point","coordinates":[2.2956599,48.9019857]},"properties":{"id":"halal-1252383486","name":"Saveur de l'inde","layer":"halal","type":"restaurant","dietary":["halal"],"indoor":true,"familyFriendly":true,"tags":["halal","restaurant"],"source":"openstreetmap/overpass"}},{"type":"Feature","geometry":{"type":"Point","coordinates":[2.2598705,48.8837859]},"properties":{"id":"halal-1349129240","name":"L'Atelier Artisan Crêpier - Neuilly","layer":"halal","type":"restaurant","dietary":["halal"],"indoor":true,"familyFriendly":true,"tags":["halal","crepe","restaurant"],"source":"openstreetmap/overpass"}},{"type":"Feature","geometry":{"type":"Point","coordinates":[2.3348369,48.8300211]},"properties":{"id":"halal-1369995419","name":"Franprix","layer":"halal","type":"restaurant","dietary":["halal"],"indoor":true,"familyFriendly":true,"tags":["halal"],"source":"openstreetmap/overpass"}},{"type":"Feature","geometry":{"type":"Point","coordinates":[2.3816387,48.8282848]},"properties":{"id":"halal-1417916067","name":"Restaurant administratif Buffon","layer":"halal","type":"restaurant","dietary":["halal"],"indoor":true,"familyFriendly":true,"tags":["halal","restaurant"],"source":"openstreetmap/overpass"}},{"type":"Feature","geometry":{"type":"Point","coordinates":[2.3861736,48.8355297]},"properties":{"id":"halal-1418667941","name":"Pizza Family","layer":"halal","type":"restaurant","address":"10 Rue de Dijon","dietary":["halal"],"indoor":true,"familyFriendly":true,"tags":["halal","pizza","restaurant"],"source":"openstreetmap/overpass"}},{"type":"Feature","geometry":{"type":"Point","coordinates":[2.2548936,48.8968764]},"properties":{"id":"halal-1491925130","name":"Halal restaurant","layer":"halal","type":"restaurant","dietary":["halal"],"indoor":true,"familyFriendly":true,"tags":["halal","lebanese"],"source":"openstreetmap/overpass"}},{"type":"Feature","geometry":{"type":"Point","coordinates":[2.3362104,48.8675148]},"properties":{"id":"halal-1569042809","name":"Juji Ya","layer":"halal","type":"fast_food","address":"46 Rue Sainte-Anne","dietary":["halal"],"indoor":true,"familyFriendly":true,"tags":["halal","bento;japanese","fast_food"],"source":"openstreetmap/overpass"}},{"type":"Feature","geometry":{"type":"Point","coordinates":[2.3208944,48.8944319]},"properties":{"id":"halal-1574982092","name":"Carrefour City","layer":"halal","type":"restaurant","dietary":["halal"],"indoor":true,"familyFriendly":true,"tags":["halal"],"source":"openstreetmap/overpass"}},{"type":"Feature","geometry":{"type":"Point","coordinates":[2.3788831,48.8474638]},"properties":{"id":"halal-1652804345","name":"Panangkai","layer":"halal","type":"restaurant","address":"13 bis Rue Beccaria","dietary":["halal"],"indoor":true,"familyFriendly":true,"tags":["halal","thai","restaurant"],"source":"openstreetmap/overpass"}},{"type":"Feature","geometry":{"type":"Point","coordinates":[2.3429988,48.8930905]},"properties":{"id":"halal-1668776803","name":"Charcuterie de Montmartre","layer":"halal","type":"restaurant","dietary":["halal"],"indoor":true,"familyFriendly":true,"tags":["halal"],"source":"openstreetmap/overpass"}},{"type":"Feature","geometry":{"type":"Point","coordinates":[2.3603085,48.8699762]},"properties":{"id":"halal-1670120528","name":"Maison Maé","layer":"halal","type":"restaurant","dietary":["halal"],"indoor":true,"familyFriendly":true,"tags":["halal"],"source":"openstreetmap/overpass"}},{"type":"Feature","geometry":{"type":"Point","coordinates":[2.3212175,48.8168402]},"properties":{"id":"halal-1695110202","name":"Chez Ibsaïne","layer":"halal","type":"restaurant","dietary":["halal"],"indoor":true,"familyFriendly":true,"tags":["halal"],"source":"openstreetmap/overpass"}},{"type":"Feature","geometry":{"type":"Point","coordinates":[2.3493886,48.843577]},"properties":{"id":"halal-1702570598","name":"Chez Nicos","layer":"halal","type":"restaurant","dietary":["halal"],"indoor":true,"familyFriendly":true,"tags":["halal","crepe;pancake;sandwich","restaurant"],"source":"openstreetmap/overpass"}},{"type":"Feature","geometry":{"type":"Point","coordinates":[2.339943,48.8695651]},"properties":{"id":"halal-1725093479","name":"Monop'","layer":"halal","type":"restaurant","dietary":["halal"],"indoor":true,"familyFriendly":true,"tags":["halal"],"source":"openstreetmap/overpass"}},{"type":"Feature","geometry":{"type":"Point","coordinates":[2.3413537,48.8262745]},"properties":{"id":"halal-1728470551","name":"Boucherie Atlas","layer":"halal","type":"restaurant","dietary":["halal"],"indoor":true,"familyFriendly":true,"tags":["halal"],"source":"openstreetmap/overpass"}},{"type":"Feature","geometry":{"type":"Point","coordinates":[2.4065219,48.8528674]},"properties":{"id":"halal-1746547217","name":"Boucherie Maraîchers","layer":"halal","type":"restaurant","dietary":["halal"],"indoor":true,"familyFriendly":true,"tags":["halal"],"source":"openstreetmap/overpass"}},{"type":"Feature","geometry":{"type":"Point","coordinates":[2.2937166,48.8509119]},"properties":{"id":"halal-1746655068","name":"Taj Mahal","layer":"halal","type":"restaurant","address":"8 Rue Humblot","dietary":["halal"],"indoor":true,"familyFriendly":true,"tags":["halal","indian","restaurant"],"source":"openstreetmap/overpass"}},{"type":"Feature","geometry":{"type":"Point","coordinates":[2.2880062,48.8974057]},"properties":{"id":"halal-1793355690","name":"Aldi","layer":"halal","type":"restaurant","address":"86 Rue Édouard Vaillant","dietary":["halal"],"indoor":true,"familyFriendly":true,"tags":["halal"],"source":"openstreetmap/overpass"}},{"type":"Feature","geometry":{"type":"Point","coordinates":[2.2905002,48.833932]},"properties":{"id":"halal-1834668634","name":"Five Pizza Original","layer":"halal","type":"fast_food","dietary":["halal"],"indoor":true,"familyFriendly":true,"tags":["halal","pizza","fast_food"],"source":"openstreetmap/overpass"}},{"type":"Feature","geometry":{"type":"Point","coordinates":[2.3763864,48.8245312]},"properties":{"id":"halal-1869081297","name":"GFC Restaurant","layer":"halal","type":"fast_food","dietary":["halal"],"indoor":true,"familyFriendly":true,"tags":["halal","indian;chicken","fast_food"],"source":"openstreetmap/overpass"}},{"type":"Feature","geometry":{"type":"Point","coordinates":[2.3273585,48.8933506]},"properties":{"id":"halal-1909284412","name":"Nouvelle Boucherie de l'Europe","layer":"halal","type":"restaurant","dietary":["halal"],"indoor":true,"familyFriendly":true,"tags":["halal"],"source":"openstreetmap/overpass"}},{"type":"Feature","geometry":{"type":"Point","coordinates":[2.4142767,48.8793671]},"properties":{"id":"halal-1927131583","name":"Les Jumeaux","layer":"halal","type":"restaurant","dietary":["halal"],"indoor":true,"familyFriendly":true,"tags":["halal"],"source":"openstreetmap/overpass"}},{"type":"Feature","geometry":{"type":"Point","coordinates":[2.2503471,48.8956096]},"properties":{"id":"halal-1958261368","name":"La Ferme de Courbevoie","layer":"halal","type":"restaurant","dietary":["halal"],"indoor":true,"familyFriendly":true,"tags":["halal"],"source":"openstreetmap/overpass"}},{"type":"Feature","geometry":{"type":"Point","coordinates":[2.3800635,48.8448359]},"properties":{"id":"halal-2013669173","name":"Les Arcades","layer":"halal","type":"cafe","dietary":["halal"],"indoor":true,"familyFriendly":true,"tags":["halal","cafe"],"source":"openstreetmap/overpass"}},{"type":"Feature","geometry":{"type":"Point","coordinates":[2.4002748,48.8643067]},"properties":{"id":"halal-2065214032","name":"Nouilles Amala","layer":"halal","type":"restaurant","address":"28 Rue de la Cour des Noues","dietary":["halal"],"indoor":true,"familyFriendly":true,"tags":["halal","tibetan;noodle;dumplings","restaurant"],"source":"openstreetmap/overpass"}},{"type":"Feature","geometry":{"type":"Point","coordinates":[2.3065067,48.8272341]},"properties":{"id":"halal-2122702308","name":"Boucherie Chayma","layer":"halal","type":"restaurant","dietary":["halal"],"indoor":true,"familyFriendly":true,"tags":["halal"],"source":"openstreetmap/overpass"}},{"type":"Feature","geometry":{"type":"Point","coordinates":[2.3432474,48.8716988]},"properties":{"id":"halal-2126361723","name":"La Crème de Paris","layer":"halal","type":"fast_food","dietary":["halal"],"indoor":true,"familyFriendly":true,"tags":["halal","crepe","fast_food"],"source":"openstreetmap/overpass"}},{"type":"Feature","geometry":{"type":"Point","coordinates":[2.3579998,48.8229281]},"properties":{"id":"halal-2184507409","name":"Boucherie Tadfousse","layer":"halal","type":"restaurant","dietary":["halal"],"indoor":true,"familyFriendly":true,"tags":["halal"],"source":"openstreetmap/overpass"}},{"type":"Feature","geometry":{"type":"Point","coordinates":[2.3601961,48.8151292]},"properties":{"id":"halal-2191750645","name":"Chicken Street","layer":"halal","type":"fast_food","dietary":["halal"],"indoor":true,"familyFriendly":true,"tags":["halal","chicken","fast_food"],"source":"openstreetmap/overpass"}},{"type":"Feature","geometry":{"type":"Point","coordinates":[2.3603213,48.8153387]},"properties":{"id":"halal-2191750647","name":"A la Renommée","layer":"halal","type":"restaurant","dietary":["halal"],"indoor":true,"familyFriendly":true,"tags":["halal"],"source":"openstreetmap/overpass"}},{"type":"Feature","geometry":{"type":"Point","coordinates":[2.3383598,48.8268373]},"properties":{"id":"halal-2194592311","name":"Joayo","layer":"halal","type":"restaurant","address":"7 Rue d'Alésia","dietary":["halal"],"indoor":true,"familyFriendly":true,"tags":["halal","barbecue;korean","restaurant"],"source":"openstreetmap/overpass"}},{"type":"Feature","geometry":{"type":"Point","coordinates":[2.3165259,48.831072]},"properties":{"id":"halal-2197417204","name":"Boucherie SMR d'Alésia","layer":"halal","type":"restaurant","dietary":["halal"],"indoor":true,"familyFriendly":true,"tags":["halal"],"source":"openstreetmap/overpass"}},{"type":"Feature","geometry":{"type":"Point","coordinates":[2.3605416,48.8902265]},"properties":{"id":"halal-2247186010","name":"Boucherie Riquet Viandes","layer":"halal","type":"restaurant","dietary":["halal"],"indoor":true,"familyFriendly":true,"tags":["halal"],"source":"openstreetmap/overpass"}},{"type":"Feature","geometry":{"type":"Point","coordinates":[2.3125683,48.8263166]},"properties":{"id":"halal-2252720264","name":"My Tacos","layer":"halal","type":"fast_food","dietary":["halal"],"indoor":true,"familyFriendly":true,"tags":["halal","fast_food"],"source":"openstreetmap/overpass"}},{"type":"Feature","geometry":{"type":"Point","coordinates":[2.3602548,48.8888155]},"properties":{"id":"halal-2254950108","name":"Monoprix","layer":"halal","type":"restaurant","dietary":["halal"],"indoor":true,"familyFriendly":true,"tags":["halal"],"source":"openstreetmap/overpass"}},{"type":"Feature","geometry":{"type":"Point","coordinates":[2.3069857,48.8276124]},"properties":{"id":"halal-2258768698","name":"Boucherie Atlas","layer":"halal","type":"restaurant","dietary":["halal"],"indoor":true,"familyFriendly":true,"tags":["halal"],"source":"openstreetmap/overpass"}},{"type":"Feature","geometry":{"type":"Point","coordinates":[2.3613767,48.8902732]},"properties":{"id":"halal-2267078073","name":"Boucherie Ibrahim","layer":"halal","type":"restaurant","dietary":["halal"],"indoor":true,"familyFriendly":true,"tags":["halal"],"source":"openstreetmap/overpass"}},{"type":"Feature","geometry":{"type":"Point","coordinates":[2.3286665,48.8243387]},"properties":{"id":"halal-2273112667","name":"Veni Vici","layer":"halal","type":"fast_food","dietary":["halal"],"indoor":true,"familyFriendly":true,"tags":["halal","steak_house;burger","fast_food"],"source":"openstreetmap/overpass"}},{"type":"Feature","geometry":{"type":"Point","coordinates":[2.3263627,48.8245871]},"properties":{"id":"halal-2273154245","name":"Street Point","layer":"halal","type":"restaurant","address":"57 Rue Beaunier","dietary":["halal"],"indoor":true,"familyFriendly":true,"tags":["halal","burger;chicken;kebab;sandwich","restaurant"],"source":"openstreetmap/overpass"}},{"type":"Feature","geometry":{"type":"Point","coordinates":[2.2814852,48.8417577]},"properties":{"id":"halal-2273249439","name":"Boucherie Chayma","layer":"halal","type":"restaurant","dietary":["halal"],"indoor":true,"familyFriendly":true,"tags":["halal"],"source":"openstreetmap/overpass"}},{"type":"Feature","geometry":{"type":"Point","coordinates":[2.3152081,48.8322843]},"properties":{"id":"halal-2283535941","name":"Dokkebi","layer":"halal","type":"restaurant","address":"121 Rue Raymond Losserand","dietary":["halal"],"indoor":true,"familyFriendly":true,"tags":["halal","korean","restaurant"],"source":"openstreetmap/overpass"}},{"type":"Feature","geometry":{"type":"Point","coordinates":[2.3633896,48.8269435]},"properties":{"id":"halal-2301505887","name":"King Food","layer":"halal","type":"fast_food","dietary":["halal"],"indoor":true,"familyFriendly":true,"tags":["halal","kebab","fast_food"],"source":"openstreetmap/overpass"}},{"type":"Feature","geometry":{"type":"Point","coordinates":[2.3816393,48.8288049]},"properties":{"id":"halal-2327299563","name":"Paris Milan","layer":"halal","type":"restaurant","dietary":["halal"],"indoor":true,"familyFriendly":true,"tags":["halal","italian","restaurant"],"source":"openstreetmap/overpass"}},{"type":"Feature","geometry":{"type":"Point","coordinates":[2.3255516,48.8419078]},"properties":{"id":"halal-2347006547","name":"Le Petit Josselin","layer":"halal","type":"restaurant","address":"59 Rue du Montparnasse","dietary":["halal"],"indoor":true,"familyFriendly":true,"tags":["halal","crepe;pancake","restaurant"],"source":"openstreetmap/overpass"}},{"type":"Feature","geometry":{"type":"Point","coordinates":[2.3514657,48.8160296]},"properties":{"id":"halal-2365886224","name":"Boucherie Gentillėenne","layer":"halal","type":"restaurant","dietary":["halal"],"indoor":true,"familyFriendly":true,"tags":["halal"],"source":"openstreetmap/overpass"}},{"type":"Feature","geometry":{"type":"Point","coordinates":[2.4127259,48.8787228]},"properties":{"id":"halal-2377861459","name":"La Ferme des Lilas","layer":"halal","type":"restaurant","address":"60 Rue de Paris","dietary":["halal"],"indoor":true,"familyFriendly":true,"tags":["halal"],"source":"openstreetmap/overpass"}},{"type":"Feature","geometry":{"type":"Point","coordinates":[2.375227,48.829878]},"properties":{"id":"halal-2378416373","name":"Istanbul grill","layer":"halal","type":"fast_food","address":"10 Rue de Tolbiac","dietary":["halal"],"indoor":true,"familyFriendly":true,"tags":["halal","kebab","fast_food"],"source":"openstreetmap/overpass"}},{"type":"Feature","geometry":{"type":"Point","coordinates":[2.3573776,48.8248228]},"properties":{"id":"halal-2379022509","name":"Boucherie Halal","layer":"halal","type":"restaurant","dietary":["halal"],"indoor":true,"familyFriendly":true,"tags":["halal"],"source":"openstreetmap/overpass"}},{"type":"Feature","geometry":{"type":"Point","coordinates":[2.3491473,48.8615372]},"properties":{"id":"halal-2394065576","name":"Pita Tacos","layer":"halal","type":"fast_food","address":"64 Rue Saint-Denis","dietary":["halal"],"indoor":true,"familyFriendly":true,"tags":["halal","fast_food"],"source":"openstreetmap/overpass"}},{"type":"Feature","geometry":{"type":"Point","coordinates":[2.3939262,48.8157967]},"properties":{"id":"halal-2435592335","name":"Tasty Crispy","layer":"halal","type":"fast_food","dietary":["halal"],"indoor":true,"familyFriendly":true,"tags":["halal","chicken","fast_food"],"source":"openstreetmap/overpass"}},{"type":"Feature","geometry":{"type":"Point","coordinates":[2.3985598,48.8177668]},"properties":{"id":"halal-2435687390","name":"Point B","layer":"halal","type":"fast_food","dietary":["halal"],"indoor":true,"familyFriendly":true,"tags":["halal","fast_food"],"source":"openstreetmap/overpass"}},{"type":"Feature","geometry":{"type":"Point","coordinates":[2.2848366,48.8459993]},"properties":{"id":"halal-2458325628","name":"Five Pizza Original","layer":"halal","type":"restaurant","dietary":["halal"],"indoor":true,"familyFriendly":true,"tags":["halal","pizza","restaurant"],"source":"openstreetmap/overpass"}},{"type":"Feature","geometry":{"type":"Point","coordinates":[2.3681972,48.826909]},"properties":{"id":"halal-2503349473","name":"Franprix","layer":"halal","type":"restaurant","dietary":["halal"],"indoor":true,"familyFriendly":true,"tags":["halal"],"source":"openstreetmap/overpass"}},{"type":"Feature","geometry":{"type":"Point","coordinates":[2.3706917,48.8274692]},"properties":{"id":"halal-2513735664","name":"Éric Nivot","layer":"halal","type":"restaurant","dietary":["halal"],"indoor":true,"familyFriendly":true,"tags":["halal"],"source":"openstreetmap/overpass"}},{"type":"Feature","geometry":{"type":"Point","coordinates":[2.3445489,48.8767036]},"properties":{"id":"halal-2514493581","name":"Halal Baraka","layer":"halal","type":"restaurant","dietary":["halal"],"indoor":true,"familyFriendly":true,"tags":["halal"],"source":"openstreetmap/overpass"}},{"type":"Feature","geometry":{"type":"Point","coordinates":[2.3458751,48.8528817]},"properties":{"id":"halal-2534780308","name":"Oriental Bowl","layer":"halal","type":"fast_food","dietary":["halal"],"indoor":true,"familyFriendly":true,"tags":["halal","couscous;arab","fast_food"],"source":"openstreetmap/overpass"}},{"type":"Feature","geometry":{"type":"Point","coordinates":[2.3454126,48.8526496]},"properties":{"id":"halal-2575207520","name":"Chez Zareta","layer":"halal","type":"restaurant","dietary":["halal"],"indoor":true,"familyFriendly":true,"tags":["halal","caucasian","restaurant"],"source":"openstreetmap/overpass"}},{"type":"Feature","geometry":{"type":"Point","coordinates":[2.3454077,48.8527933]},"properties":{"id":"halal-2575207521","name":"Chicken Spot","layer":"halal","type":"fast_food","address":"Rue Xavier Privas","dietary":["halal"],"indoor":true,"familyFriendly":true,"tags":["halal","burger;chicken","fast_food"],"source":"openstreetmap/overpass"}},{"type":"Feature","geometry":{"type":"Point","coordinates":[2.3417859,48.8257747]},"properties":{"id":"halal-2597595679","name":"Boucherie du plaisir","layer":"halal","type":"restaurant","dietary":["halal"],"indoor":true,"familyFriendly":true,"tags":["halal"],"source":"openstreetmap/overpass"}},{"type":"Feature","geometry":{"type":"Point","coordinates":[2.3246037,48.8316905]},"properties":{"id":"halal-2683241607","name":"Carrefour Express","layer":"halal","type":"restaurant","address":"6 Rue de la Sablière","dietary":["halal"],"indoor":true,"familyFriendly":true,"tags":["halal"],"source":"openstreetmap/overpass"}},{"type":"Feature","geometry":{"type":"Point","coordinates":[2.3543356,48.8303294]},"properties":{"id":"halal-2705375935","name":"Otakuni","layer":"halal","type":"restaurant","address":"6 Rue Bobillot","dietary":["halal"],"indoor":true,"familyFriendly":true,"tags":["halal","japanese","restaurant"],"source":"openstreetmap/overpass"}},{"type":"Feature","geometry":{"type":"Point","coordinates":[2.2996061,48.8882832]},"properties":{"id":"halal-2713796513","name":"Boucherie du berger","layer":"halal","type":"restaurant","dietary":["halal"],"indoor":true,"familyFriendly":true,"tags":["halal"],"source":"openstreetmap/overpass"}},{"type":"Feature","geometry":{"type":"Point","coordinates":[2.3497379,48.8394962]},"properties":{"id":"halal-2788471578","name":"L'Atelier Artisan Crêpier - Mouffetard","layer":"halal","type":"restaurant","dietary":["halal"],"indoor":true,"familyFriendly":true,"tags":["halal","crepe;pancake","restaurant"],"source":"openstreetmap/overpass"}},{"type":"Feature","geometry":{"type":"Point","coordinates":[2.3015806,48.8288651]},"properties":{"id":"halal-2818222801","name":"Boucherie Brancion","layer":"halal","type":"restaurant","dietary":["halal"],"indoor":true,"familyFriendly":true,"tags":["halal"],"source":"openstreetmap/overpass"}},{"type":"Feature","geometry":{"type":"Point","coordinates":[2.305398,48.888987]},"properties":{"id":"halal-2836191102","name":"L'Ardoise","layer":"halal","type":"restaurant","dietary":["halal"],"indoor":true,"familyFriendly":true,"tags":["halal","french","restaurant"],"source":"openstreetmap/overpass"}},{"type":"Feature","geometry":{"type":"Point","coordinates":[2.3544188,48.8458615]},"properties":{"id":"halal-2838978001","name":"Restaurant Istanbul","layer":"halal","type":"fast_food","dietary":["halal"],"indoor":true,"familyFriendly":true,"tags":["halal","kebab;turkish","fast_food"],"source":"openstreetmap/overpass"}},{"type":"Feature","geometry":{"type":"Point","coordinates":[2.3754194,48.8249241]},"properties":{"id":"halal-2847602303","name":"O'Soleil","layer":"halal","type":"restaurant","dietary":["halal"],"indoor":true,"familyFriendly":true,"tags":["halal","african;couscous","restaurant"],"source":"openstreetmap/overpass"}},{"type":"Feature","geometry":{"type":"Point","coordinates":[2.3760252,48.8247845]},"properties":{"id":"halal-2847602903","name":"Boucherie Chamsi","layer":"halal","type":"restaurant","dietary":["halal"],"indoor":true,"familyFriendly":true,"tags":["halal"],"source":"openstreetmap/overpass"}},{"type":"Feature","geometry":{"type":"Point","coordinates":[2.3790821,48.8748709]},"properties":{"id":"halal-2873634152","name":"G20","layer":"halal","type":"restaurant","address":"45 Rue Rébeval","dietary":["halal"],"indoor":true,"familyFriendly":true,"tags":["halal"],"source":"openstreetmap/overpass"}},{"type":"Feature","geometry":{"type":"Point","coordinates":[2.3739632,48.8492105]},"properties":{"id":"halal-2874544925","name":"Best Meal","layer":"halal","type":"fast_food","address":"72 Avenue Ledru-Rollin","dietary":["halal"],"indoor":true,"familyFriendly":true,"tags":["halal","fast_food"],"source":"openstreetmap/overpass"}},{"type":"Feature","geometry":{"type":"Point","coordinates":[2.3799872,48.8746983]},"properties":{"id":"halal-2882594285","name":"Fri-chiks & Pizza","layer":"halal","type":"fast_food","dietary":["halal"],"indoor":true,"familyFriendly":true,"tags":["halal","chicken","fast_food"],"source":"openstreetmap/overpass"}},{"type":"Feature","geometry":{"type":"Point","coordinates":[2.3817686,48.8855693]},"properties":{"id":"halal-2921125937","name":"Boucherie Laumière","layer":"halal","type":"restaurant","dietary":["halal"],"indoor":true,"familyFriendly":true,"tags":["halal"],"source":"openstreetmap/overpass"}},{"type":"Feature","geometry":{"type":"Point","coordinates":[2.4101154,48.8927147]},"properties":{"id":"halal-2940075172","name":"Boucherie Salmi (halal)","layer":"halal","type":"restaurant","address":"111 Avenue Jean Lolive","dietary":["halal"],"indoor":true,"familyFriendly":true,"tags":["halal"],"source":"openstreetmap/overpass"}},{"type":"Feature","geometry":{"type":"Point","coordinates":[2.4115193,48.8929882]},"properties":{"id":"halal-2940075181","name":"Délices de Pantin","layer":"halal","type":"fast_food","address":"131 Avenue Jean Lolive","dietary":["halal"],"indoor":true,"familyFriendly":true,"tags":["halal","asian","fast_food"],"source":"openstreetmap/overpass"}},{"type":"Feature","geometry":{"type":"Point","coordinates":[2.3749831,48.8742457]},"properties":{"id":"halal-2957843843","name":"Boucherie Sodivillette","layer":"halal","type":"restaurant","dietary":["halal"],"indoor":true,"familyFriendly":true,"tags":["halal"],"source":"openstreetmap/overpass"}},{"type":"Feature","geometry":{"type":"Point","coordinates":[2.3780889,48.8725781]},"properties":{"id":"halal-2963067798","name":"Bubble Tea","layer":"halal","type":"fast_food","dietary":["halal"],"indoor":true,"familyFriendly":true,"tags":["halal","bubble_tea","fast_food"],"source":"openstreetmap/overpass"}},{"type":"Feature","geometry":{"type":"Point","coordinates":[2.38603,48.8743814]},"properties":{"id":"halal-2963131985","name":"Boucherie Mezouari","layer":"halal","type":"restaurant","dietary":["halal"],"indoor":true,"familyFriendly":true,"tags":["halal"],"source":"openstreetmap/overpass"}},{"type":"Feature","geometry":{"type":"Point","coordinates":[2.329955,48.8290259]},"properties":{"id":"halal-2996098149","name":"Uno Italian pizza","layer":"halal","type":"restaurant","address":"6 Rue Montbrun","dietary":["halal"],"indoor":true,"familyFriendly":true,"tags":["halal","italian;italian_pizza;pizza","restaurant"],"source":"openstreetmap/overpass"}},{"type":"Feature","geometry":{"type":"Point","coordinates":[2.3901905,48.8753179]},"properties":{"id":"halal-3022929104","name":"Boucherie Caïdi","layer":"halal","type":"restaurant","dietary":["halal"],"indoor":true,"familyFriendly":true,"tags":["halal"],"source":"openstreetmap/overpass"}},{"type":"Feature","geometry":{"type":"Point","coordinates":[2.3928771,48.875284]},"properties":{"id":"halal-3023071279","name":"Oncle Delhi","layer":"halal","type":"fast_food","dietary":["halal"],"indoor":true,"familyFriendly":true,"tags":["halal","indian","fast_food"],"source":"openstreetmap/overpass"}},{"type":"Feature","geometry":{"type":"Point","coordinates":[2.3929626,48.8752811]},"properties":{"id":"halal-3023072247","name":"Hallal boucherie","layer":"halal","type":"restaurant","dietary":["halal"],"indoor":true,"familyFriendly":true,"tags":["halal"],"source":"openstreetmap/overpass"}},{"type":"Feature","geometry":{"type":"Point","coordinates":[2.3201993,48.8320807]},"properties":{"id":"halal-3025744998","name":"Ichiban","layer":"halal","type":"restaurant","address":"30 Rue Didot","dietary":["halal"],"indoor":true,"familyFriendly":true,"tags":["halal","japanese","restaurant"],"source":"openstreetmap/overpass"}},{"type":"Feature","geometry":{"type":"Point","coordinates":[2.3041559,48.8226836]},"properties":{"id":"halal-3032599612","name":"Brothers Smash & More","layer":"halal","type":"fast_food","address":"40 Rue de la Tour","dietary":["halal"],"indoor":true,"familyFriendly":true,"tags":["halal","burger","fast_food"],"source":"openstreetmap/overpass"}},{"type":"Feature","geometry":{"type":"Point","coordinates":[2.3953704,48.8168538]},"properties":{"id":"halal-3045917161","name":"Boucherie Samiry","layer":"halal","type":"restaurant","address":"38 Rue Lénine","dietary":["halal"],"indoor":true,"familyFriendly":true,"tags":["halal"],"source":"openstreetmap/overpass"}},{"type":"Feature","geometry":{"type":"Point","coordinates":[2.262154,48.89922]},"properties":{"id":"halal-3047207734","name":"Fun Pizza","layer":"halal","type":"restaurant","dietary":["halal"],"indoor":true,"familyFriendly":true,"tags":["halal","pizza","restaurant"],"source":"openstreetmap/overpass"}},{"type":"Feature","geometry":{"type":"Point","coordinates":[2.3989273,48.8174493]},"properties":{"id":"halal-3048851406","name":"Chicken Street","layer":"halal","type":"fast_food","dietary":["halal"],"indoor":true,"familyFriendly":true,"tags":["halal","chicken","fast_food"],"source":"openstreetmap/overpass"}},{"type":"Feature","geometry":{"type":"Point","coordinates":[2.3990199,48.8173832]},"properties":{"id":"halal-3048863896","name":"Chez l'Ancien","layer":"halal","type":"fast_food","dietary":["halal"],"indoor":true,"familyFriendly":true,"tags":["halal","burger","fast_food"],"source":"openstreetmap/overpass"}},{"type":"Feature","geometry":{"type":"Point","coordinates":[2.3748477,48.873632]},"properties":{"id":"halal-3056156780","name":"Pho Belleville","layer":"halal","type":"restaurant","dietary":["halal"],"indoor":true,"familyFriendly":true,"tags":["halal","chinese","restaurant"],"source":"openstreetmap/overpass"}},{"type":"Feature","geometry":{"type":"Point","coordinates":[2.3786667,48.8569347]},"properties":{"id":"halal-3092541184","name":"Kasapali","layer":"halal","type":"restaurant","dietary":["halal"],"indoor":true,"familyFriendly":true,"tags":["halal"],"source":"openstreetmap/overpass"}},{"type":"Feature","geometry":{"type":"Point","coordinates":[2.3813552,48.8921632]},"properties":{"id":"halal-3102381530","name":"Boucherie El Andalousse","layer":"halal","type":"restaurant","address":"31 Rue de Nantes","dietary":["halal"],"indoor":true,"familyFriendly":true,"tags":["halal"],"source":"openstreetmap/overpass"}},{"type":"Feature","geometry":{"type":"Point","coordinates":[2.3489558,48.8921294]},"properties":{"id":"halal-3103772889","name":"Boucherie Gouraya","layer":"halal","type":"restaurant","address":"7 bis Boulevard Ornano","dietary":["halal"],"indoor":true,"familyFriendly":true,"tags":["halal"],"source":"openstreetmap/overpass"}},{"type":"Feature","geometry":{"type":"Point","coordinates":[2.3801351,48.8623064]},"properties":{"id":"halal-3147489279","name":"Afghanistan","layer":"halal","type":"restaurant","dietary":["halal"],"indoor":true,"familyFriendly":true,"tags":["halal","restaurant"],"source":"openstreetmap/overpass"}},{"type":"Feature","geometry":{"type":"Point","coordinates":[2.3406336,48.8487278]},"properties":{"id":"halal-3239933756","name":"Hanoï","layer":"halal","type":"restaurant","dietary":["halal"],"indoor":true,"familyFriendly":true,"tags":["halal","vietnamese","restaurant"],"source":"openstreetmap/overpass"}},{"type":"Feature","geometry":{"type":"Point","coordinates":[2.4010679,48.8787845]},"properties":{"id":"halal-3257175776","name":"Halal Pizza","layer":"halal","type":"fast_food","dietary":["halal"],"indoor":true,"familyFriendly":true,"tags":["halal","fast_food"],"source":"openstreetmap/overpass"}},{"type":"Feature","geometry":{"type":"Point","coordinates":[2.3627556,48.8884734]},"properties":{"id":"halal-3286375776","name":"Mam'Ayoka Pajol","layer":"halal","type":"restaurant","address":"20 Esplanade Nathalie Sarraute","dietary":["halal"],"indoor":true,"familyFriendly":true,"tags":["halal","cambodian;african;maghrebi;equatorian;guadeloupean","restaurant"],"source":"openstreetmap/overpass"}},{"type":"Feature","geometry":{"type":"Point","coordinates":[2.250567,48.835637]},"properties":{"id":"halal-3290200271","name":"BABA Kitchen","layer":"halal","type":"restaurant","address":"51 Avenue Édouard Vaillant","dietary":["halal"],"indoor":true,"familyFriendly":true,"tags":["halal","restaurant"],"source":"openstreetmap/overpass"}},{"type":"Feature","geometry":{"type":"Point","coordinates":[2.3094018,48.8394474]},"properties":{"id":"halal-3308068547","name":"Nafnafa","layer":"halal","type":"fast_food","dietary":["halal"],"indoor":true,"familyFriendly":true,"tags":["halal","lebanese","fast_food"],"source":"openstreetmap/overpass"}},{"type":"Feature","geometry":{"type":"Point","coordinates":[2.3492734,48.879711]},"properties":{"id":"halal-3339794226","name":"Boucherie Charcuterie","layer":"halal","type":"restaurant","dietary":["halal"],"indoor":true,"familyFriendly":true,"tags":["halal"],"source":"openstreetmap/overpass"}},{"type":"Feature","geometry":{"type":"Point","coordinates":[2.3214748,48.8431258]},"properties":{"id":"halal-3351975950","name":"Zaeka","layer":"halal","type":"restaurant","dietary":["halal"],"indoor":true,"familyFriendly":true,"tags":["halal","burger;indian","restaurant"],"source":"openstreetmap/overpass"}},{"type":"Feature","geometry":{"type":"Point","coordinates":[2.3820071,48.8289516]},"properties":{"id":"halal-3358344841","name":"Papita","layer":"halal","type":"fast_food","dietary":["halal"],"indoor":true,"familyFriendly":true,"tags":["halal","burger;kebab","fast_food"],"source":"openstreetmap/overpass"}},{"type":"Feature","geometry":{"type":"Point","coordinates":[2.3778618,48.8715771]},"properties":{"id":"halal-3366437087","name":"Boucherie Henrino","layer":"halal","type":"restaurant","dietary":["halal"],"indoor":true,"familyFriendly":true,"tags":["halal"],"source":"openstreetmap/overpass"}},{"type":"Feature","geometry":{"type":"Point","coordinates":[2.3144197,48.8316324]},"properties":{"id":"halal-3371230466","name":"Boucherie Ath Douala","layer":"halal","type":"restaurant","address":"205 Rue d'Alésia","dietary":["halal"],"indoor":true,"familyFriendly":true,"tags":["halal"],"source":"openstreetmap/overpass"}},{"type":"Feature","geometry":{"type":"Point","coordinates":[2.3850743,48.8676313]},"properties":{"id":"halal-3390395221","name":"Chez Momo","layer":"halal","type":"restaurant","address":"31 Rue de Ménilmontant","dietary":["halal"],"indoor":true,"familyFriendly":true,"tags":["halal","tibetan","restaurant"],"source":"openstreetmap/overpass"}},{"type":"Feature","geometry":{"type":"Point","coordinates":[2.3256668,48.8853025]},"properties":{"id":"halal-3390831489","name":"Buzkashi","layer":"halal","type":"restaurant","dietary":["halal"],"indoor":true,"familyFriendly":true,"tags":["halal","afghan","restaurant"],"source":"openstreetmap/overpass"}},{"type":"Feature","geometry":{"type":"Point","coordinates":[2.3593552,48.8729235]},"properties":{"id":"halal-3391496508","name":"Al Assil","layer":"halal","type":"fast_food","dietary":["halal"],"indoor":true,"familyFriendly":true,"tags":["halal","oriental","fast_food"],"source":"openstreetmap/overpass"}},{"type":"Feature","geometry":{"type":"Point","coordinates":[2.3530342,48.869876]},"properties":{"id":"halal-3407049227","name":"Sürpriz Berliner Kebab","layer":"halal","type":"fast_food","address":"28 Boulevard Saint-Denis","dietary":["halal"],"indoor":true,"familyFriendly":true,"tags":["halal","kebab","fast_food"],"source":"openstreetmap/overpass"}},{"type":"Feature","geometry":{"type":"Point","coordinates":[2.3262504,48.8864288]},"properties":{"id":"halal-3409087764","name":"Boucherie d'Agadir","layer":"halal","type":"restaurant","dietary":["halal"],"indoor":true,"familyFriendly":true,"tags":["halal"],"source":"openstreetmap/overpass"}},{"type":"Feature","geometry":{"type":"Point","coordinates":[2.3263857,48.8861609]},"properties":{"id":"halal-3409192659","name":"Chicken Street","layer":"halal","type":"fast_food","dietary":["halal"],"indoor":true,"familyFriendly":true,"tags":["halal","chicken","fast_food"],"source":"openstreetmap/overpass"}},{"type":"Feature","geometry":{"type":"Point","coordinates":[2.3648466,48.8657299]},"properties":{"id":"halal-3421390902","name":"Au Royal Couscous","layer":"halal","type":"restaurant","dietary":["halal"],"indoor":true,"familyFriendly":true,"tags":["halal","restaurant"],"source":"openstreetmap/overpass"}},{"type":"Feature","geometry":{"type":"Point","coordinates":[2.351834,48.8654654]},"properties":{"id":"halal-3430529493","name":"Huo Yan Shan","layer":"halal","type":"restaurant","address":"93 Boulevard de Sébastopol","dietary":["halal"],"indoor":true,"familyFriendly":true,"tags":["halal","uyghur","restaurant"],"source":"openstreetmap/overpass"}},{"type":"Feature","geometry":{"type":"Point","coordinates":[2.3451202,48.8759009]},"properties":{"id":"halal-3438053659","name":"Intermarché Express","layer":"halal","type":"restaurant","dietary":["halal"],"indoor":true,"familyFriendly":true,"tags":["halal"],"source":"openstreetmap/overpass"}},{"type":"Feature","geometry":{"type":"Point","coordinates":[2.3100849,48.8449181]},"properties":{"id":"halal-3455146093","name":"Delices Home","layer":"halal","type":"fast_food","dietary":["halal"],"indoor":true,"familyFriendly":true,"tags":["halal","fast_food"],"source":"openstreetmap/overpass"}},{"type":"Feature","geometry":{"type":"Point","coordinates":[2.3432882,48.8460828]},"properties":{"id":"halal-3457454893","name":"Kehribar","layer":"halal","type":"restaurant","dietary":["halal"],"indoor":true,"familyFriendly":true,"tags":["halal","mediterranean","restaurant"],"source":"openstreetmap/overpass"}},{"type":"Feature","geometry":{"type":"Point","coordinates":[2.2927568,48.8931652]},"properties":{"id":"halal-3513941931","name":"Au Bon Goût","layer":"halal","type":"fast_food","dietary":["halal"],"indoor":true,"familyFriendly":true,"tags":["halal","kebab","fast_food"],"source":"openstreetmap/overpass"}},{"type":"Feature","geometry":{"type":"Point","coordinates":[2.3432915,48.8958765]},"properties":{"id":"halal-3519034271","name":"Les Initiés","layer":"halal","type":"restaurant","address":"84 Rue Championnet","dietary":["halal"],"indoor":true,"familyFriendly":true,"tags":["halal","restaurant"],"source":"openstreetmap/overpass"}},{"type":"Feature","geometry":{"type":"Point","coordinates":[2.3432344,48.8692872]},"properties":{"id":"halal-3519423581","name":"Kiwa","layer":"halal","type":"fast_food","address":"148 Rue Montmartre","dietary":["halal"],"indoor":true,"familyFriendly":true,"tags":["halal","korean","fast_food"],"source":"openstreetmap/overpass"}},{"type":"Feature","geometry":{"type":"Point","coordinates":[2.2498914,48.8358016]},"properties":{"id":"halal-3632709393","name":"Chicken Street","layer":"halal","type":"fast_food","dietary":["halal"],"indoor":true,"familyFriendly":true,"tags":["halal","chicken","fast_food"],"source":"openstreetmap/overpass"}},{"type":"Feature","geometry":{"type":"Point","coordinates":[2.3477231,48.8594097]},"properties":{"id":"halal-3635439666","name":"Chicken Street","layer":"halal","type":"fast_food","dietary":["halal"],"indoor":true,"familyFriendly":true,"tags":["halal","chicken","fast_food"],"source":"openstreetmap/overpass"}},{"type":"Feature","geometry":{"type":"Point","coordinates":[2.3585829,48.882448]},"properties":{"id":"halal-3643891197","name":"ASI Boucherie","layer":"halal","type":"restaurant","dietary":["halal"],"indoor":true,"familyFriendly":true,"tags":["halal"],"source":"openstreetmap/overpass"}},{"type":"Feature","geometry":{"type":"Point","coordinates":[2.3159633,48.9006172]},"properties":{"id":"halal-3655699874","name":"Bonheur De Clichy","layer":"halal","type":"restaurant","dietary":["halal"],"indoor":true,"familyFriendly":true,"tags":["halal","chinese;buffet","restaurant"],"source":"openstreetmap/overpass"}},{"type":"Feature","geometry":{"type":"Point","coordinates":[2.3501602,48.8637603]},"properties":{"id":"halal-3680774398","name":"Galice Burger Grill","layer":"halal","type":"restaurant","address":"106 Rue Saint-Denis","dietary":["halal"],"indoor":true,"familyFriendly":true,"tags":["halal","restaurant"],"source":"openstreetmap/overpass"}},{"type":"Feature","geometry":{"type":"Point","coordinates":[2.3820686,48.845124]},"properties":{"id":"halal-3689296360","name":"Josanica","layer":"halal","type":"cafe","address":"145 Rue de Charenton","dietary":["halal"],"indoor":true,"familyFriendly":true,"tags":["halal","cafe"],"source":"openstreetmap/overpass"}},{"type":"Feature","geometry":{"type":"Point","coordinates":[2.3826996,48.8449979]},"properties":{"id":"halal-3689296456","name":"Crea tea","layer":"halal","type":"cafe","dietary":["halal"],"indoor":true,"familyFriendly":true,"tags":["halal","bubble_tea","cafe"],"source":"openstreetmap/overpass"}},{"type":"Feature","geometry":{"type":"Point","coordinates":[2.3798727,48.8457613]},"properties":{"id":"halal-3689296464","name":"O’Chodron","layer":"halal","type":"cafe","dietary":["halal"],"indoor":true,"familyFriendly":true,"tags":["halal","cafe"],"source":"openstreetmap/overpass"}},{"type":"Feature","geometry":{"type":"Point","coordinates":[2.359058,48.8838104]},"properties":{"id":"halal-3704121927","name":"Gabarina","layer":"halal","type":"restaurant","dietary":["halal"],"indoor":true,"familyFriendly":true,"tags":["halal"],"source":"openstreetmap/overpass"}},{"type":"Feature","geometry":{"type":"Point","coordinates":[2.4160815,48.8798414]},"properties":{"id":"halal-3710903494","name":"Aristo","layer":"halal","type":"fast_food","dietary":["halal"],"indoor":true,"familyFriendly":true,"tags":["halal","fast_food"],"source":"openstreetmap/overpass"}},{"type":"Feature","geometry":{"type":"Point","coordinates":[2.3310974,48.8910894]},"properties":{"id":"halal-3873384060","name":"Restaurant Diyar","layer":"halal","type":"restaurant","dietary":["halal"],"indoor":true,"familyFriendly":true,"tags":["halal","kebab","restaurant"],"source":"openstreetmap/overpass"}},{"type":"Feature","geometry":{"type":"Point","coordinates":[2.3528968,48.870986]},"properties":{"id":"halal-3975063036","name":"Pamuk","layer":"halal","type":"restaurant","dietary":["halal"],"indoor":true,"familyFriendly":true,"tags":["halal"],"source":"openstreetmap/overpass"}},{"type":"Feature","geometry":{"type":"Point","coordinates":[2.3571653,48.8764427]},"properties":{"id":"halal-4016883493","name":"Yummy","layer":"halal","type":"fast_food","dietary":["halal"],"indoor":true,"familyFriendly":true,"tags":["halal","asian","fast_food"],"source":"openstreetmap/overpass"}},{"type":"Feature","geometry":{"type":"Point","coordinates":[2.2606889,48.8233221]},"properties":{"id":"halal-4197577792","name":"La Factory Burger","layer":"halal","type":"restaurant","address":"16 Rue René Jacques","dietary":["halal"],"indoor":true,"familyFriendly":true,"tags":["halal","burger","restaurant"],"source":"openstreetmap/overpass"}},{"type":"Feature","geometry":{"type":"Point","coordinates":[2.3253642,48.8416772]},"properties":{"id":"halal-4229378707","name":"La Crêperie de Josselin","layer":"halal","type":"restaurant","address":"67 Rue du Montparnasse","dietary":["halal"],"indoor":true,"familyFriendly":true,"tags":["halal","crepe;pancake","restaurant"],"source":"openstreetmap/overpass"}},{"type":"Feature","geometry":{"type":"Point","coordinates":[2.3793657,48.8460358]},"properties":{"id":"halal-4291615044","name":"Dakawa","layer":"halal","type":"restaurant","address":"128 Rue de Charenton","dietary":["halal"],"indoor":true,"familyFriendly":true,"tags":["halal","bento;korean;japanese","restaurant"],"source":"openstreetmap/overpass"}},{"type":"Feature","geometry":{"type":"Point","coordinates":[2.4166675,48.8913493]},"properties":{"id":"halal-4313968052","name":"Boucherie Hakla","layer":"halal","type":"restaurant","dietary":["halal"],"indoor":true,"familyFriendly":true,"tags":["halal"],"source":"openstreetmap/overpass"}},{"type":"Feature","geometry":{"type":"Point","coordinates":[2.3435489,48.8927798]},"properties":{"id":"halal-4314637151","name":"Café Lanni","layer":"halal","type":"cafe","address":"1 Rue du Poteau","dietary":["halal"],"indoor":true,"familyFriendly":true,"tags":["halal","cafe"],"source":"openstreetmap/overpass"}},{"type":"Feature","geometry":{"type":"Point","coordinates":[2.371456,48.8384157]},"properties":{"id":"halal-4338728093","name":"Nems & Sushi","layer":"halal","type":"restaurant","dietary":["halal"],"indoor":true,"familyFriendly":true,"tags":["halal","japanese;chinese","restaurant"],"source":"openstreetmap/overpass"}},{"type":"Feature","geometry":{"type":"Point","coordinates":[2.373017,48.8286639]},"properties":{"id":"halal-4352508093","name":"O'32","layer":"halal","type":"fast_food","address":"32 Rue de Tolbiac","dietary":["halal"],"indoor":true,"familyFriendly":true,"tags":["halal","kebab","fast_food"],"source":"openstreetmap/overpass"}},{"type":"Feature","geometry":{"type":"Point","coordinates":[2.3671634,48.8270044]},"properties":{"id":"halal-4366473578","name":"Restaurant grill du Campus","layer":"halal","type":"fast_food","dietary":["halal"],"indoor":true,"familyFriendly":true,"tags":["halal","kebab","fast_food"],"source":"openstreetmap/overpass"}},{"type":"Feature","geometry":{"type":"Point","coordinates":[2.3153723,48.9002592]},"properties":{"id":"halal-4371698696","name":"Boucherie Musulmane Ennour","layer":"halal","type":"restaurant","address":"70","dietary":["halal"],"indoor":true,"familyFriendly":true,"tags":["halal"],"source":"openstreetmap/overpass"}},{"type":"Feature","geometry":{"type":"Point","coordinates":[2.3711858,48.827921]},"properties":{"id":"halal-4416201809","name":"Boucherie Adrad","layer":"halal","type":"restaurant","dietary":["halal"],"indoor":true,"familyFriendly":true,"tags":["halal"],"source":"openstreetmap/overpass"}},{"type":"Feature","geometry":{"type":"Point","coordinates":[2.382496,48.8455725]},"properties":{"id":"halal-4430480698","name":"Boucherie des Amis","layer":"halal","type":"restaurant","dietary":["halal"],"indoor":true,"familyFriendly":true,"tags":["halal"],"source":"openstreetmap/overpass"}},{"type":"Feature","geometry":{"type":"Point","coordinates":[2.3213957,48.8346601]},"properties":{"id":"halal-4455273192","name":"La Boucherie du Château","layer":"halal","type":"restaurant","dietary":["halal"],"indoor":true,"familyFriendly":true,"tags":["halal"],"source":"openstreetmap/overpass"}},{"type":"Feature","geometry":{"type":"Point","coordinates":[2.3101993,48.8988742]},"properties":{"id":"halal-4537817389","name":"Le Petit Ploum","layer":"halal","type":"cafe","dietary":["halal"],"indoor":true,"familyFriendly":true,"tags":["halal","cafe"],"source":"openstreetmap/overpass"}},{"type":"Feature","geometry":{"type":"Point","coordinates":[2.3531927,48.8704811]},"properties":{"id":"halal-4680536554","name":"Boucherie La Tulipe","layer":"halal","type":"restaurant","dietary":["halal"],"indoor":true,"familyFriendly":true,"tags":["halal"],"source":"openstreetmap/overpass"}},{"type":"Feature","geometry":{"type":"Point","coordinates":[2.3158352,48.8328091]},"properties":{"id":"halal-4760247303","name":"Jin","layer":"halal","type":"fast_food","dietary":["halal"],"indoor":true,"familyFriendly":true,"tags":["halal","asian","fast_food"],"source":"openstreetmap/overpass"}},{"type":"Feature","geometry":{"type":"Point","coordinates":[2.2840101,48.8450403]},"properties":{"id":"halal-4814099956","name":"St Charles","layer":"halal","type":"restaurant","dietary":["halal"],"indoor":true,"familyFriendly":true,"tags":["halal"],"source":"openstreetmap/overpass"}},{"type":"Feature","geometry":{"type":"Point","coordinates":[2.371998,48.8293632]},"properties":{"id":"halal-4833264557","name":"Andiamo","layer":"halal","type":"fast_food","dietary":["halal"],"indoor":true,"familyFriendly":true,"tags":["halal","pizza","fast_food"],"source":"openstreetmap/overpass"}},{"type":"Feature","geometry":{"type":"Point","coordinates":[2.3389551,48.8316331]},"properties":{"id":"halal-4857881998","name":"Franprix","layer":"halal","type":"restaurant","address":"Rue Dareau","dietary":["halal"],"indoor":true,"familyFriendly":true,"tags":["halal"],"source":"openstreetmap/overpass"}},{"type":"Feature","geometry":{"type":"Point","coordinates":[2.3800684,48.8397059]},"properties":{"id":"halal-4870366121","name":"Chez la Meilleure Crêpe","layer":"halal","type":"restaurant","address":"116 Rue de Bercy","dietary":["halal"],"indoor":true,"familyFriendly":true,"tags":["halal","crepe"],"source":"openstreetmap/overpass"}},{"type":"Feature","geometry":{"type":"Point","coordinates":[2.3526588,48.8700516]},"properties":{"id":"halal-4880644624","name":"Boucherie Beni Douala","layer":"halal","type":"restaurant","dietary":["halal"],"indoor":true,"familyFriendly":true,"tags":["halal"],"source":"openstreetmap/overpass"}},{"type":"Feature","geometry":{"type":"Point","coordinates":[2.3345652,48.8792695]},"properties":{"id":"halal-4935628428","name":"Les Canailles","layer":"halal","type":"restaurant","address":"25 Rue La Bruyère","dietary":["halal"],"indoor":true,"familyFriendly":true,"tags":["halal","french","restaurant"],"source":"openstreetmap/overpass"}},{"type":"Feature","geometry":{"type":"Point","coordinates":[2.3457351,48.8714882]},"properties":{"id":"halal-4954891340","name":"Hélia","layer":"halal","type":"restaurant","address":"1-3 Rue Rougemont","dietary":["halal"],"indoor":true,"familyFriendly":true,"tags":["halal","mediterranean;turkish","restaurant"],"source":"openstreetmap/overpass"}},{"type":"Feature","geometry":{"type":"Point","coordinates":[2.2572518,48.8200337]},"properties":{"id":"halal-4964337041","name":"Boucherie Musulmane Nour","layer":"halal","type":"restaurant","address":"132 Avenue de Verdun","dietary":["halal"],"indoor":true,"familyFriendly":true,"tags":["halal"],"source":"openstreetmap/overpass"}},{"type":"Feature","geometry":{"type":"Point","coordinates":[2.3282839,48.8961536]},"properties":{"id":"halal-4970819681","name":"Viande d'Exception","layer":"halal","type":"restaurant","dietary":["halal"],"indoor":true,"familyFriendly":true,"tags":["halal"],"source":"openstreetmap/overpass"}},{"type":"Feature","geometry":{"type":"Point","coordinates":[2.3993975,48.8513881]},"properties":{"id":"halal-4982336824","name":"Boucherie Nouvelle Avron","layer":"halal","type":"restaurant","dietary":["halal"],"indoor":true,"familyFriendly":true,"tags":["halal"],"source":"openstreetmap/overpass"}},{"type":"Feature","geometry":{"type":"Point","coordinates":[2.3523752,48.8848382]},"properties":{"id":"halal-4988660223","name":"Boucherie la Goutte d'or","layer":"halal","type":"restaurant","dietary":["halal"],"indoor":true,"familyFriendly":true,"tags":["halal"],"source":"openstreetmap/overpass"}},{"type":"Feature","geometry":{"type":"Point","coordinates":[2.3566064,48.8746485]},"properties":{"id":"halal-5064539923","name":"Le Dodo","layer":"halal","type":"restaurant","dietary":["halal"],"indoor":true,"familyFriendly":true,"tags":["halal","mauritian","restaurant"],"source":"openstreetmap/overpass"}},{"type":"Feature","geometry":{"type":"Point","coordinates":[2.3549878,48.8740107]},"properties":{"id":"halal-5064547122","name":"Lahore Supermarché","layer":"halal","type":"restaurant","dietary":["halal"],"indoor":true,"familyFriendly":true,"tags":["halal"],"source":"openstreetmap/overpass"}},{"type":"Feature","geometry":{"type":"Point","coordinates":[2.3150397,48.9004827]},"properties":{"id":"halal-5072161437","name":"Petit Veau","layer":"halal","type":"restaurant","dietary":["halal"],"indoor":true,"familyFriendly":true,"tags":["halal","restaurant"],"source":"openstreetmap/overpass"}},{"type":"Feature","geometry":{"type":"Point","coordinates":[2.3351169,48.8521822]},"properties":{"id":"halal-5077321884","name":"L'Atelier","layer":"halal","type":"restaurant","dietary":["halal"],"indoor":true,"familyFriendly":true,"tags":["halal","crepe","restaurant"],"source":"openstreetmap/overpass"}},{"type":"Feature","geometry":{"type":"Point","coordinates":[2.3504845,48.8618336]},"properties":{"id":"halal-5127021443","name":"Chez Elie","layer":"halal","type":"fast_food","address":"67 Rue Rambuteau","dietary":["halal"],"indoor":true,"familyFriendly":true,"tags":["halal","lebanese","fast_food"],"source":"openstreetmap/overpass"}},{"type":"Feature","geometry":{"type":"Point","coordinates":[2.3643315,48.8246574]},"properties":{"id":"halal-5144143176","name":"Chicken World","layer":"halal","type":"fast_food","dietary":["halal"],"indoor":true,"familyFriendly":true,"tags":["halal","fried_chicken","fast_food"],"source":"openstreetmap/overpass"}},{"type":"Feature","geometry":{"type":"Point","coordinates":[2.3761403,48.891051]},"properties":{"id":"halal-5200072823","name":"Boucherie Al Amana","layer":"halal","type":"restaurant","address":"191 Rue de Crimée","dietary":["halal"],"indoor":true,"familyFriendly":true,"tags":["halal"],"source":"openstreetmap/overpass"}},{"type":"Feature","geometry":{"type":"Point","coordinates":[2.3074957,48.8712631]},"properties":{"id":"halal-5255511223","name":"Smash","layer":"halal","type":"fast_food","dietary":["halal"],"indoor":true,"familyFriendly":true,"tags":["halal","fast_food"],"source":"openstreetmap/overpass"}},{"type":"Feature","geometry":{"type":"Point","coordinates":[2.3513262,48.8394418]},"properties":{"id":"halal-5298105012","name":"Founti Agadir","layer":"halal","type":"restaurant","dietary":["halal"],"indoor":true,"familyFriendly":true,"tags":["halal","couscous","restaurant"],"source":"openstreetmap/overpass"}},{"type":"Feature","geometry":{"type":"Point","coordinates":[2.3834888,48.8674993]},"properties":{"id":"halal-5337662721","name":"Au Poulet Braisé","layer":"halal","type":"restaurant","address":"4 Rue Étienne Dolet","dietary":["halal"],"indoor":true,"familyFriendly":true,"tags":["halal","chicken","restaurant"],"source":"openstreetmap/overpass"}},{"type":"Feature","geometry":{"type":"Point","coordinates":[2.353852,48.8419923]},"properties":{"id":"halal-5341540541","name":"Boucherie Limouri","layer":"halal","type":"restaurant","dietary":["halal"],"indoor":true,"familyFriendly":true,"tags":["halal"],"source":"openstreetmap/overpass"}},{"type":"Feature","geometry":{"type":"Point","coordinates":[2.3491408,48.8928055]},"properties":{"id":"halal-5341552321","name":"Au Poulet Braisé","layer":"halal","type":"restaurant","dietary":["halal"],"indoor":true,"familyFriendly":true,"tags":["halal","chicken","restaurant"],"source":"openstreetmap/overpass"}},{"type":"Feature","geometry":{"type":"Point","coordinates":[2.3762735,48.8172259]},"properties":{"id":"halal-5341552421","name":"Au Poulet Braisé","layer":"halal","type":"restaurant","address":"89 Avenue Maurice Thorez","dietary":["halal"],"indoor":true,"familyFriendly":true,"tags":["halal","chicken","restaurant"],"source":"openstreetmap/overpass"}},{"type":"Feature","geometry":{"type":"Point","coordinates":[2.4092969,48.8689184]},"properties":{"id":"halal-5528878601","name":"Boucherie du marché Mortier","layer":"halal","type":"restaurant","dietary":["halal"],"indoor":true,"familyFriendly":true,"tags":["halal"],"source":"openstreetmap/overpass"}},{"type":"Feature","geometry":{"type":"Point","coordinates":[2.2880931,48.8987261]},"properties":{"id":"halal-5575722242","name":"Franprix","layer":"halal","type":"restaurant","dietary":["halal"],"indoor":true,"familyFriendly":true,"tags":["halal"],"source":"openstreetmap/overpass"}},{"type":"Feature","geometry":{"type":"Point","coordinates":[2.3276622,48.8291137]},"properties":{"id":"halal-5641731023","name":"Street Bangkok","layer":"halal","type":"fast_food","dietary":["halal"],"indoor":true,"familyFriendly":true,"tags":["halal","thai","fast_food"],"source":"openstreetmap/overpass"}},{"type":"Feature","geometry":{"type":"Point","coordinates":[2.376377,48.868969]},"properties":{"id":"halal-5679681803","name":"La Cantine de Babelville","layer":"halal","type":"restaurant","dietary":["halal"],"indoor":true,"familyFriendly":true,"tags":["halal","restaurant"],"source":"openstreetmap/overpass"}},{"type":"Feature","geometry":{"type":"Point","coordinates":[2.2910441,48.8905236]},"properties":{"id":"halal-5719678691","name":"La Kazdalerie","layer":"halal","type":"fast_food","address":"79 Rue Louise Michel","dietary":["halal"],"indoor":true,"familyFriendly":true,"tags":["halal","moroccan","fast_food"],"source":"openstreetmap/overpass"}},{"type":"Feature","geometry":{"type":"Point","coordinates":[2.3095017,48.8160637]},"properties":{"id":"halal-5770223268","name":"Amore & Pasta","layer":"halal","type":"fast_food","dietary":["halal"],"indoor":true,"familyFriendly":true,"tags":["halal","pasta","fast_food"],"source":"openstreetmap/overpass"}},{"type":"Feature","geometry":{"type":"Point","coordinates":[2.3372128,48.8666098]},"properties":{"id":"halal-5792300059","name":"Omusubi Gonbei","layer":"halal","type":"fast_food","address":"27 Rue des Petits Champs","dietary":["halal"],"indoor":true,"familyFriendly":true,"tags":["halal","japanese","fast_food"],"source":"openstreetmap/overpass"}},{"type":"Feature","geometry":{"type":"Point","coordinates":[2.2947627,48.8549338]},"properties":{"id":"halal-5843769590","name":"Franprix","layer":"halal","type":"restaurant","dietary":["halal"],"indoor":true,"familyFriendly":true,"tags":["halal"],"source":"openstreetmap/overpass"}},{"type":"Feature","geometry":{"type":"Point","coordinates":[2.3400809,48.8393026]},"properties":{"id":"halal-5871122108","name":"Dolce Pizza","layer":"halal","type":"fast_food","dietary":["halal"],"indoor":true,"familyFriendly":true,"tags":["halal","pizza","fast_food"],"source":"openstreetmap/overpass"}},{"type":"Feature","geometry":{"type":"Point","coordinates":[2.3818123,48.8397665]},"properties":{"id":"halal-5938618416","name":"Rajasthan","layer":"halal","type":"restaurant","dietary":["halal"],"indoor":true,"familyFriendly":true,"tags":["halal","indian","restaurant"],"source":"openstreetmap/overpass"}},{"type":"Feature","geometry":{"type":"Point","coordinates":[2.3504169,48.8657682]},"properties":{"id":"halal-5955618829","name":"Yemma","layer":"halal","type":"restaurant","address":"2 Rue Saint-Sauveur","dietary":["halal"],"indoor":true,"familyFriendly":true,"tags":["halal","moroccan;sandwich","restaurant"],"source":"openstreetmap/overpass"}},{"type":"Feature","geometry":{"type":"Point","coordinates":[2.350835,48.8658779]},"properties":{"id":"halal-5956786158","name":"Five Pizza","layer":"halal","type":"fast_food","address":"162 Rue Saint-Denis","dietary":["halal"],"indoor":true,"familyFriendly":true,"tags":["halal","pizza","fast_food"],"source":"openstreetmap/overpass"}},{"type":"Feature","geometry":{"type":"Point","coordinates":[2.3831049,48.8534095]},"properties":{"id":"halal-6034943364","name":"Bar à Iode - Charonne","layer":"halal","type":"restaurant","address":"18 Rue Jean Macé","dietary":["halal"],"indoor":true,"familyFriendly":true,"tags":["halal","seafood","restaurant"],"source":"openstreetmap/overpass"}},{"type":"Feature","geometry":{"type":"Point","coordinates":[2.2595084,48.8383826]},"properties":{"id":"halal-6039086286","name":"L'Étoile","layer":"halal","type":"restaurant","dietary":["halal"],"indoor":true,"familyFriendly":true,"tags":["halal"],"source":"openstreetmap/overpass"}},{"type":"Feature","geometry":{"type":"Point","coordinates":[2.3984744,48.8365665]},"properties":{"id":"halal-6050031108","name":"L'Atelier de la Viande","layer":"halal","type":"restaurant","address":"55 Rue Claude Decaen","dietary":["halal"],"indoor":true,"familyFriendly":true,"tags":["halal"],"source":"openstreetmap/overpass"}},{"type":"Feature","geometry":{"type":"Point","coordinates":[2.3833895,48.8661566]},"properties":{"id":"halal-6124897586","name":"Darna","layer":"halal","type":"restaurant","address":"127 Boulevard de Ménilmontant","dietary":["halal"],"indoor":true,"familyFriendly":true,"tags":["halal","moroccan","restaurant"],"source":"openstreetmap/overpass"}},{"type":"Feature","geometry":{"type":"Point","coordinates":[2.3782612,48.8705392]},"properties":{"id":"halal-6140672088","name":"2M","layer":"halal","type":"restaurant","dietary":["halal"],"indoor":true,"familyFriendly":true,"tags":["halal"],"source":"openstreetmap/overpass"}},{"type":"Feature","geometry":{"type":"Point","coordinates":[2.3467635,48.895862]},"properties":{"id":"halal-6165765686","name":"Pépé Santana","layer":"halal","type":"fast_food","dietary":["halal"],"indoor":true,"familyFriendly":true,"tags":["halal","burger","fast_food"],"source":"openstreetmap/overpass"}},{"type":"Feature","geometry":{"type":"Point","coordinates":[2.3776308,48.8721536]},"properties":{"id":"halal-6171104077","name":"Sitis market","layer":"halal","type":"restaurant","dietary":["halal"],"indoor":true,"familyFriendly":true,"tags":["halal"],"source":"openstreetmap/overpass"}},{"type":"Feature","geometry":{"type":"Point","coordinates":[2.3802027,48.8690046]},"properties":{"id":"halal-6175356816","name":"Boudalia","layer":"halal","type":"restaurant","dietary":["halal"],"indoor":true,"familyFriendly":true,"tags":["halal"],"source":"openstreetmap/overpass"}},{"type":"Feature","geometry":{"type":"Point","coordinates":[2.3799249,48.8692245]},"properties":{"id":"halal-6204275584","name":"2M","layer":"halal","type":"restaurant","dietary":["halal"],"indoor":true,"familyFriendly":true,"tags":["halal"],"source":"openstreetmap/overpass"}},{"type":"Feature","geometry":{"type":"Point","coordinates":[2.3981205,48.8723555]},"properties":{"id":"halal-6338361086","name":"Boucherie Ines","layer":"halal","type":"restaurant","dietary":["halal"],"indoor":true,"familyFriendly":true,"tags":["halal"],"source":"openstreetmap/overpass"}},{"type":"Feature","geometry":{"type":"Point","coordinates":[2.366668,48.8684819]},"properties":{"id":"halal-6356568790","name":"Tasty Crousty","layer":"halal","type":"fast_food","dietary":["halal"],"indoor":true,"familyFriendly":true,"tags":["halal","chicken","fast_food"],"source":"openstreetmap/overpass"}},{"type":"Feature","geometry":{"type":"Point","coordinates":[2.3597499,48.8963119]},"properties":{"id":"halal-6388054873","name":"Food House","layer":"halal","type":"fast_food","address":"82 Rue de la Chapelle","dietary":["halal"],"indoor":true,"familyFriendly":true,"tags":["halal","indian;chicken;tacos;burger","fast_food"],"source":"openstreetmap/overpass"}},{"type":"Feature","geometry":{"type":"Point","coordinates":[2.3599909,48.8850047]},"properties":{"id":"halal-6388060052","name":"Mac Beni","layer":"halal","type":"fast_food","address":"16 Place de la Chapelle","dietary":["halal"],"indoor":true,"familyFriendly":true,"tags":["halal","pizza;kebab;burger","fast_food"],"source":"openstreetmap/overpass"}},{"type":"Feature","geometry":{"type":"Point","coordinates":[2.3790391,48.8659664]},"properties":{"id":"halal-6577033200","name":"Sürpriz - Berliner Kebab","layer":"halal","type":"fast_food","address":"110 Rue Oberkampf","dietary":["halal"],"indoor":true,"familyFriendly":true,"tags":["halal","kebab","fast_food"],"source":"openstreetmap/overpass"}},{"type":"Feature","geometry":{"type":"Point","coordinates":[2.3835907,48.8515554]},"properties":{"id":"halal-6610235082","name":"La Récolte","layer":"halal","type":"restaurant","dietary":["halal"],"indoor":true,"familyFriendly":true,"tags":["halal"],"source":"openstreetmap/overpass"}},{"type":"Feature","geometry":{"type":"Point","coordinates":[2.3546072,48.8713692]},"properties":{"id":"halal-6655614255","name":"Yasmin","layer":"halal","type":"restaurant","dietary":["halal"],"indoor":true,"familyFriendly":true,"tags":["halal","indian","restaurant"],"source":"openstreetmap/overpass"}},{"type":"Feature","geometry":{"type":"Point","coordinates":[2.314695,48.8945078]},"properties":{"id":"halal-6683465529","name":"Cour des Halles","layer":"halal","type":"restaurant","dietary":["halal"],"indoor":true,"familyFriendly":true,"tags":["halal"],"source":"openstreetmap/overpass"}},{"type":"Feature","geometry":{"type":"Point","coordinates":[2.3389989,48.8695214]},"properties":{"id":"halal-6833057586","name":"Côme Bourse","layer":"halal","type":"restaurant","address":"11 Rue de la Bourse","dietary":["halal"],"indoor":true,"familyFriendly":true,"tags":["halal","bowl;pita","restaurant"],"source":"openstreetmap/overpass"}},{"type":"Feature","geometry":{"type":"Point","coordinates":[2.3774134,48.8580444]},"properties":{"id":"halal-6893770636","name":"Snooze","layer":"halal","type":"restaurant","address":"64 Rue Sedaine","dietary":["halal"],"indoor":true,"familyFriendly":true,"tags":["halal","palestinian","restaurant"],"source":"openstreetmap/overpass"}},{"type":"Feature","geometry":{"type":"Point","coordinates":[2.3744705,48.8257833]},"properties":{"id":"halal-7028008465","name":"Bolly Street","layer":"halal","type":"fast_food","dietary":["halal"],"indoor":true,"familyFriendly":true,"tags":["halal","chicken","fast_food"],"source":"openstreetmap/overpass"}},{"type":"Feature","geometry":{"type":"Point","coordinates":[2.3744163,48.8258204]},"properties":{"id":"halal-7028008477","name":"Patay Boucherie","layer":"halal","type":"restaurant","dietary":["halal"],"indoor":true,"familyFriendly":true,"tags":["halal"],"source":"openstreetmap/overpass"}},{"type":"Feature","geometry":{"type":"Point","coordinates":[2.413119,48.893449]},"properties":{"id":"halal-7140135712","name":"Lezz-Et","layer":"halal","type":"restaurant","address":"149 Avenue Jean Lolive","dietary":["halal"],"indoor":true,"familyFriendly":true,"tags":["halal","steak_house","restaurant"],"source":"openstreetmap/overpass"}},{"type":"Feature","geometry":{"type":"Point","coordinates":[2.3518168,48.8905149]},"properties":{"id":"halal-7154317954","name":"Maxin Chicken","layer":"halal","type":"fast_food","address":"36 Rue Marcadet","dietary":["halal"],"indoor":true,"familyFriendly":true,"tags":["halal","chicken","fast_food"],"source":"openstreetmap/overpass"}},{"type":"Feature","geometry":{"type":"Point","coordinates":[2.4036393,48.8911909]},"properties":{"id":"halal-7157543257","name":"Five Pizza Original","layer":"halal","type":"fast_food","dietary":["halal"],"indoor":true,"familyFriendly":true,"tags":["halal","pizza","fast_food"],"source":"openstreetmap/overpass"}},{"type":"Feature","geometry":{"type":"Point","coordinates":[2.3178492,48.8351017]},"properties":{"id":"halal-7267270199","name":"Au Vietnam","layer":"halal","type":"restaurant","address":"2 Rue Niepce","dietary":["halal"],"indoor":true,"familyFriendly":true,"tags":["halal","vietnamese","restaurant"],"source":"openstreetmap/overpass"}},{"type":"Feature","geometry":{"type":"Point","coordinates":[2.3431876,48.8283762]},"properties":{"id":"halal-7288839887","name":"Daviel","layer":"halal","type":"restaurant","dietary":["halal"],"indoor":true,"familyFriendly":true,"tags":["halal"],"source":"openstreetmap/overpass"}},{"type":"Feature","geometry":{"type":"Point","coordinates":[2.2951314,48.8985951]},"properties":{"id":"halal-7291760512","name":"Le Royal Grill","layer":"halal","type":"restaurant","dietary":["halal"],"indoor":true,"familyFriendly":true,"tags":["halal","kebab","restaurant"],"source":"openstreetmap/overpass"}},{"type":"Feature","geometry":{"type":"Point","coordinates":[2.3160997,48.8327826]},"properties":{"id":"halal-7374672488","name":"O'Mega Food","layer":"halal","type":"fast_food","dietary":["halal"],"indoor":true,"familyFriendly":true,"tags":["halal","kebab","fast_food"],"source":"openstreetmap/overpass"}},{"type":"Feature","geometry":{"type":"Point","coordinates":[2.397223,48.8375003]},"properties":{"id":"halal-7453207355","name":"L’Atelier de la Viande","layer":"halal","type":"restaurant","dietary":["halal"],"indoor":true,"familyFriendly":true,"tags":["halal"],"source":"openstreetmap/overpass"}},{"type":"Feature","geometry":{"type":"Point","coordinates":[2.4158396,48.8751649]},"properties":{"id":"halal-7484784061","name":"La Fleur des Lilas","layer":"halal","type":"restaurant","address":"65 Rue des Bruyères","dietary":["halal"],"indoor":true,"familyFriendly":true,"tags":["halal","couscous;brasserie","restaurant"],"source":"openstreetmap/overpass"}},{"type":"Feature","geometry":{"type":"Point","coordinates":[2.3239654,48.8316493]},"properties":{"id":"halal-7496768688","name":"Boucherie Limousine","layer":"halal","type":"restaurant","dietary":["halal"],"indoor":true,"familyFriendly":true,"tags":["halal"],"source":"openstreetmap/overpass"}},{"type":"Feature","geometry":{"type":"Point","coordinates":[2.3255915,48.830237]},"properties":{"id":"halal-7502681688","name":"La Boucherie du Jour","layer":"halal","type":"restaurant","dietary":["halal"],"indoor":true,"familyFriendly":true,"tags":["halal"],"source":"openstreetmap/overpass"}},{"type":"Feature","geometry":{"type":"Point","coordinates":[2.4204352,48.8920589]},"properties":{"id":"halal-7548486809","name":"Délice Ikbal","layer":"halal","type":"restaurant","address":"13-15 Rue Boieldieu","dietary":["halal"],"indoor":true,"familyFriendly":true,"tags":["halal"],"source":"openstreetmap/overpass"}},{"type":"Feature","geometry":{"type":"Point","coordinates":[2.2973533,48.8670973]},"properties":{"id":"halal-7699127994","name":"Carrefour City","layer":"halal","type":"restaurant","dietary":["halal"],"indoor":true,"familyFriendly":true,"tags":["halal"],"source":"openstreetmap/overpass"}},{"type":"Feature","geometry":{"type":"Point","coordinates":[2.3483583,48.8616509]},"properties":{"id":"halal-7865917311","name":"Tarboush","layer":"halal","type":"restaurant","address":"14 Rue de la Cossonnerie","dietary":["halal"],"indoor":true,"familyFriendly":true,"tags":["halal","kebab","restaurant"],"source":"openstreetmap/overpass"}},{"type":"Feature","geometry":{"type":"Point","coordinates":[2.3480119,48.8703668]},"properties":{"id":"halal-7899778432","name":"La Bonne Nouvelle","layer":"halal","type":"fast_food","address":"44 Rue Poissonnière","dietary":["halal"],"indoor":true,"familyFriendly":true,"tags":["halal","kebab","fast_food"],"source":"openstreetmap/overpass"}},{"type":"Feature","geometry":{"type":"Point","coordinates":[2.2635938,48.884126]},"properties":{"id":"halal-7916981612","name":"Five Pizza Original","layer":"halal","type":"fast_food","address":"146 bis Avenue Charles de Gaulle","dietary":["halal"],"indoor":true,"familyFriendly":true,"tags":["halal","pizza","fast_food"],"source":"openstreetmap/overpass"}},{"type":"Feature","geometry":{"type":"Point","coordinates":[2.3540853,48.8725784]},"properties":{"id":"halal-7923594482","name":"Lahore Supermarché","layer":"halal","type":"restaurant","dietary":["halal"],"indoor":true,"familyFriendly":true,"tags":["halal"],"source":"openstreetmap/overpass"}},{"type":"Feature","geometry":{"type":"Point","coordinates":[2.3555116,48.8377277]},"properties":{"id":"halal-7948782803","name":"Délices Saint-Marcel","layer":"halal","type":"fast_food","dietary":["halal"],"indoor":true,"familyFriendly":true,"tags":["halal","kebab","fast_food"],"source":"openstreetmap/overpass"}},{"type":"Feature","geometry":{"type":"Point","coordinates":[2.3382689,48.8846254]},"properties":{"id":"halal-7995599851","name":"Une Glace à Paris","layer":"halal","type":"restaurant","dietary":["halal"],"indoor":true,"familyFriendly":true,"tags":["halal"],"source":"openstreetmap/overpass"}},{"type":"Feature","geometry":{"type":"Point","coordinates":[2.3537125,48.860032]},"properties":{"id":"halal-8016758884","name":"Taj Mahal","layer":"halal","type":"restaurant","dietary":["halal"],"indoor":true,"familyFriendly":true,"tags":["halal","restaurant"],"source":"openstreetmap/overpass"}},{"type":"Feature","geometry":{"type":"Point","coordinates":[2.3495715,48.8629501]},"properties":{"id":"halal-8175124517","name":"Arco steakhouse","layer":"halal","type":"fast_food","address":"119 Rue Saint-Denis","dietary":["halal"],"indoor":true,"familyFriendly":true,"tags":["halal","fast_food"],"source":"openstreetmap/overpass"}},{"type":"Feature","geometry":{"type":"Point","coordinates":[2.4175481,48.8425195]},"properties":{"id":"halal-8179934589","name":"Mostaza","layer":"halal","type":"fast_food","address":"46 Avenue du Général de Gaulle","dietary":["halal"],"indoor":true,"familyFriendly":true,"tags":["halal","kebab","fast_food"],"source":"openstreetmap/overpass"}},{"type":"Feature","geometry":{"type":"Point","coordinates":[2.3188549,48.8345978]},"properties":{"id":"halal-8235552412","name":"Carrefour City","layer":"halal","type":"restaurant","address":"17 Rue Niepce","dietary":["halal"],"indoor":true,"familyFriendly":true,"tags":["halal"],"source":"openstreetmap/overpass"}},{"type":"Feature","geometry":{"type":"Point","coordinates":[2.3492337,48.8897519]},"properties":{"id":"halal-8283677704","name":"Azaytoona","layer":"halal","type":"restaurant","address":"3 Rue Simart","dietary":["halal"],"indoor":true,"familyFriendly":true,"tags":["halal","indian","restaurant"],"source":"openstreetmap/overpass"}},{"type":"Feature","geometry":{"type":"Point","coordinates":[2.3493573,48.8901722]},"properties":{"id":"halal-8304562376","name":"Bayt Ul Lahm","layer":"halal","type":"restaurant","address":"65 Boulevard Barbès","dietary":["halal"],"indoor":true,"familyFriendly":true,"tags":["halal"],"source":"openstreetmap/overpass"}},{"type":"Feature","geometry":{"type":"Point","coordinates":[2.3533181,48.8707158]},"properties":{"id":"halal-8380373217","name":"Boucherie Medina","layer":"halal","type":"restaurant","dietary":["halal"],"indoor":true,"familyFriendly":true,"tags":["halal"],"source":"openstreetmap/overpass"}},{"type":"Feature","geometry":{"type":"Point","coordinates":[2.3085149,48.897643]},"properties":{"id":"halal-8397836780","name":"Intermarché","layer":"halal","type":"restaurant","dietary":["halal"],"indoor":true,"familyFriendly":true,"tags":["halal"],"source":"openstreetmap/overpass"}},{"type":"Feature","geometry":{"type":"Point","coordinates":[2.3240275,48.8308423]},"properties":{"id":"halal-8408343075","name":"le marché d'à côté","layer":"halal","type":"restaurant","dietary":["halal"],"indoor":true,"familyFriendly":true,"tags":["halal"],"source":"openstreetmap/overpass"}},{"type":"Feature","geometry":{"type":"Point","coordinates":[2.3811832,48.8937685]},"properties":{"id":"halal-8438473044","name":"Le Soleil","layer":"halal","type":"fast_food","address":"146 Avenue de Flandre","dietary":["halal"],"indoor":true,"familyFriendly":true,"tags":["halal","kebab","fast_food"],"source":"openstreetmap/overpass"}},{"type":"Feature","geometry":{"type":"Point","coordinates":[2.3779025,48.8731561]},"properties":{"id":"halal-8514501798","name":"Lim sept","layer":"halal","type":"fast_food","dietary":["halal"],"indoor":true,"familyFriendly":true,"tags":["halal","asian","fast_food"],"source":"openstreetmap/overpass"}},{"type":"Feature","geometry":{"type":"Point","coordinates":[2.3498019,48.8878633]},"properties":{"id":"halal-8595703997","name":"Kamer","layer":"halal","type":"fast_food","address":"54 Boulevard Barbès","dietary":["halal"],"indoor":true,"familyFriendly":true,"tags":["halal","kebab","fast_food"],"source":"openstreetmap/overpass"}},{"type":"Feature","geometry":{"type":"Point","coordinates":[2.3174087,48.8336416]},"properties":{"id":"halal-8674961590","name":"Break Pernety","layer":"halal","type":"fast_food","dietary":["halal"],"indoor":true,"familyFriendly":true,"tags":["halal","fast_food"],"source":"openstreetmap/overpass"}},{"type":"Feature","geometry":{"type":"Point","coordinates":[2.2809642,48.8416232]},"properties":{"id":"halal-8806490117","name":"Maison Kachour","layer":"halal","type":"restaurant","dietary":["halal"],"indoor":true,"familyFriendly":true,"tags":["halal"],"source":"openstreetmap/overpass"}},{"type":"Feature","geometry":{"type":"Point","coordinates":[2.3651089,48.8191559]},"properties":{"id":"halal-8815918024","name":"BibimHouse","layer":"halal","type":"restaurant","dietary":["halal"],"indoor":true,"familyFriendly":true,"tags":["halal","korean","restaurant"],"source":"openstreetmap/overpass"}},{"type":"Feature","geometry":{"type":"Point","coordinates":[2.3752108,48.8593105]},"properties":{"id":"halal-8874400932","name":"Pizza Unica","layer":"halal","type":"restaurant","address":"49 Rue du Chemin Vert","dietary":["halal"],"indoor":true,"familyFriendly":true,"tags":["halal","pizza","restaurant"],"source":"openstreetmap/overpass"}},{"type":"Feature","geometry":{"type":"Point","coordinates":[2.3588448,48.8750626]},"properties":{"id":"halal-8879706721","name":"Chicken Street","layer":"halal","type":"fast_food","dietary":["halal"],"indoor":true,"familyFriendly":true,"tags":["halal","chicken","fast_food"],"source":"openstreetmap/overpass"}},{"type":"Feature","geometry":{"type":"Point","coordinates":[2.3831067,48.8530792]},"properties":{"id":"halal-8889320861","name":"Mast'","layer":"halal","type":"restaurant","dietary":["halal"],"indoor":true,"familyFriendly":true,"tags":["halal","pizza","restaurant"],"source":"openstreetmap/overpass"}},{"type":"Feature","geometry":{"type":"Point","coordinates":[2.3865744,48.833013]},"properties":{"id":"halal-9044402513","name":"L'Atelier Artisan Crêpier","layer":"halal","type":"restaurant","address":"32 Cour Saint-Émilion","dietary":["halal"],"indoor":true,"familyFriendly":true,"tags":["halal","french;crepe","restaurant"],"source":"openstreetmap/overpass"}},{"type":"Feature","geometry":{"type":"Point","coordinates":[2.3369596,48.89423]},"properties":{"id":"halal-9060354617","name":"L'Hal'igot","layer":"halal","type":"restaurant","address":"112 Rue Damrémont","dietary":["halal"],"indoor":true,"familyFriendly":true,"tags":["halal","french","restaurant"],"source":"openstreetmap/overpass"}},{"type":"Feature","geometry":{"type":"Point","coordinates":[2.3594775,48.892756]},"properties":{"id":"halal-9135932925","name":"La Paix","layer":"halal","type":"restaurant","dietary":["halal"],"indoor":true,"familyFriendly":true,"tags":["halal","restaurant"],"source":"openstreetmap/overpass"}},{"type":"Feature","geometry":{"type":"Point","coordinates":[2.2820986,48.8903781]},"properties":{"id":"halal-9152573617","name":"Supercash","layer":"halal","type":"restaurant","address":"14 Rue Barbès","dietary":["halal"],"indoor":true,"familyFriendly":true,"tags":["halal"],"source":"openstreetmap/overpass"}},{"type":"Feature","geometry":{"type":"Point","coordinates":[2.3923816,48.8714075]},"properties":{"id":"halal-9211033957","name":"Boucherie des Pyrénées","layer":"halal","type":"restaurant","dietary":["halal"],"indoor":true,"familyFriendly":true,"tags":["halal"],"source":"openstreetmap/overpass"}},{"type":"Feature","geometry":{"type":"Point","coordinates":[2.3559471,48.8656702]},"properties":{"id":"halal-9359417066","name":"Carrefour City","layer":"halal","type":"restaurant","address":"53 Rue de Turbigo","dietary":["halal"],"indoor":true,"familyFriendly":true,"tags":["halal"],"source":"openstreetmap/overpass"}},{"type":"Feature","geometry":{"type":"Point","coordinates":[2.3659003,48.8798326]},"properties":{"id":"halal-9360865117","name":"Class'croute","layer":"halal","type":"fast_food","dietary":["halal"],"indoor":true,"familyFriendly":true,"tags":["halal","sandwich;salad","fast_food"],"source":"openstreetmap/overpass"}},{"type":"Feature","geometry":{"type":"Point","coordinates":[2.3980776,48.8344156]},"properties":{"id":"halal-9396731209","name":"Krazy Kotkot","layer":"halal","type":"restaurant","address":"6 Rue de Fécamp","dietary":["halal"],"indoor":true,"familyFriendly":true,"tags":["halal","chicken"],"source":"openstreetmap/overpass"}},{"type":"Feature","geometry":{"type":"Point","coordinates":[2.3917734,48.8364136]},"properties":{"id":"halal-9428533038","name":"Les Grillades de Babi","layer":"halal","type":"fast_food","dietary":["halal"],"indoor":true,"familyFriendly":true,"tags":["halal","fast_food"],"source":"openstreetmap/overpass"}},{"type":"Feature","geometry":{"type":"Point","coordinates":[2.3171871,48.8954874]},"properties":{"id":"halal-9434732111","name":"Bellissimo Piatto","layer":"halal","type":"restaurant","address":"103 bis Boulevard Bessières","dietary":["halal"],"indoor":true,"familyFriendly":true,"tags":["halal","italian;kebab","restaurant"],"source":"openstreetmap/overpass"}},{"type":"Feature","geometry":{"type":"Point","coordinates":[2.3247594,48.8881126]},"properties":{"id":"halal-9481321116","name":"Nachitos","layer":"halal","type":"fast_food","dietary":["halal"],"indoor":true,"familyFriendly":true,"tags":["halal","chicken","fast_food"],"source":"openstreetmap/overpass"}},{"type":"Feature","geometry":{"type":"Point","coordinates":[2.3216388,48.8899048]},"properties":{"id":"halal-9481401470","name":"El Bahja","layer":"halal","type":"restaurant","dietary":["halal"],"indoor":true,"familyFriendly":true,"tags":["halal"],"source":"openstreetmap/overpass"}},{"type":"Feature","geometry":{"type":"Point","coordinates":[2.3121131,48.8323901]},"properties":{"id":"halal-9527182632","name":"Boucherie Art Viandes","layer":"halal","type":"restaurant","dietary":["halal"],"indoor":true,"familyFriendly":true,"tags":["halal"],"source":"openstreetmap/overpass"}},{"type":"Feature","geometry":{"type":"Point","coordinates":[2.3204373,48.8906178]},"properties":{"id":"halal-9542944842","name":"Boucherie Oasis","layer":"halal","type":"restaurant","dietary":["halal"],"indoor":true,"familyFriendly":true,"tags":["halal"],"source":"openstreetmap/overpass"}},{"type":"Feature","geometry":{"type":"Point","coordinates":[2.3489709,48.862167]},"properties":{"id":"halal-9560681485","name":"Mon Waffle","layer":"halal","type":"cafe","address":"81 Rue Rambuteau","dietary":["halal"],"indoor":true,"familyFriendly":true,"tags":["halal","ice_cream;waffles","cafe"],"source":"openstreetmap/overpass"}},{"type":"Feature","geometry":{"type":"Point","coordinates":[2.3242844,48.8403912]},"properties":{"id":"halal-9609843681","name":"Max Tacos","layer":"halal","type":"fast_food","dietary":["halal"],"indoor":true,"familyFriendly":true,"tags":["halal","fast_food"],"source":"openstreetmap/overpass"}},{"type":"Feature","geometry":{"type":"Point","coordinates":[2.2810153,48.8416803]},"properties":{"id":"halal-9662562903","name":"Maison Didon","layer":"halal","type":"restaurant","address":"166 Rue Saint-Charles","dietary":["halal"],"indoor":true,"familyFriendly":true,"tags":["halal","arab;mediterranean","restaurant"],"source":"openstreetmap/overpass"}},{"type":"Feature","geometry":{"type":"Point","coordinates":[2.3110642,48.8374508]},"properties":{"id":"halal-9714659389","name":"Ecoviande","layer":"halal","type":"restaurant","dietary":["halal"],"indoor":true,"familyFriendly":true,"tags":["halal"],"source":"openstreetmap/overpass"}},{"type":"Feature","geometry":{"type":"Point","coordinates":[2.3288618,48.8428765]},"properties":{"id":"halal-9752990179","name":"Buffet Gourmet","layer":"halal","type":"fast_food","dietary":["halal"],"indoor":true,"familyFriendly":true,"tags":["halal","fast_food"],"source":"openstreetmap/overpass"}},{"type":"Feature","geometry":{"type":"Point","coordinates":[2.3547381,48.8374768]},"properties":{"id":"halal-9783994724","name":"Lili & Raf","layer":"halal","type":"restaurant","dietary":["halal"],"indoor":true,"familyFriendly":true,"tags":["halal"],"source":"openstreetmap/overpass"}},{"type":"Feature","geometry":{"type":"Point","coordinates":[2.3749304,48.8186382]},"properties":{"id":"halal-9787603863","name":"Pepper grill","layer":"halal","type":"fast_food","dietary":["halal"],"indoor":true,"familyFriendly":true,"tags":["halal","burger","fast_food"],"source":"openstreetmap/overpass"}},{"type":"Feature","geometry":{"type":"Point","coordinates":[2.3782931,48.8485055]},"properties":{"id":"halal-9810810520","name":"Le goëland d'Aligre","layer":"halal","type":"restaurant","dietary":["halal"],"indoor":true,"familyFriendly":true,"tags":["halal","crepe","restaurant"],"source":"openstreetmap/overpass"}},{"type":"Feature","geometry":{"type":"Point","coordinates":[2.3123194,48.8734114]},"properties":{"id":"halal-9811847581","name":"Sushi Shop","layer":"halal","type":"fast_food","address":"60 Rue La Boétie","dietary":["halal"],"indoor":true,"familyFriendly":true,"tags":["halal","sushi","fast_food"],"source":"openstreetmap/overpass"}},{"type":"Feature","geometry":{"type":"Point","coordinates":[2.3875888,48.8680715]},"properties":{"id":"halal-9845374152","name":"3 frères","layer":"halal","type":"restaurant","dietary":["halal"],"indoor":true,"familyFriendly":true,"tags":["halal"],"source":"openstreetmap/overpass"}},{"type":"Feature","geometry":{"type":"Point","coordinates":[2.3416768,48.8532972]},"properties":{"id":"halal-9856963241","name":"Chez le Libanais","layer":"halal","type":"restaurant","dietary":["halal"],"indoor":true,"familyFriendly":true,"tags":["halal","lebanese","restaurant"],"source":"openstreetmap/overpass"}},{"type":"Feature","geometry":{"type":"Point","coordinates":[2.311696,48.830772]},"properties":{"id":"halal-9924537244","name":"Halal restaurant","layer":"halal","type":"restaurant","dietary":["halal"],"indoor":true,"familyFriendly":true,"tags":["halal"],"source":"openstreetmap/overpass"}},{"type":"Feature","geometry":{"type":"Point","coordinates":[2.3159518,48.8328748]},"properties":{"id":"halal-9974705842","name":"La Gazelle","layer":"halal","type":"restaurant","dietary":["halal"],"indoor":true,"familyFriendly":true,"tags":["halal","arab","restaurant"],"source":"openstreetmap/overpass"}},{"type":"Feature","geometry":{"type":"Point","coordinates":[2.379405,48.817117]},"properties":{"id":"halal-10047018582","name":"Master Poulet","layer":"halal","type":"fast_food","address":"2 Rue Mirabeau","dietary":["halal"],"indoor":true,"familyFriendly":true,"tags":["halal","chicken","fast_food"],"source":"openstreetmap/overpass"}},{"type":"Feature","geometry":{"type":"Point","coordinates":[2.3635165,48.8923034]},"properties":{"id":"halal-10062588715","name":"O' Délices","layer":"halal","type":"fast_food","dietary":["halal"],"indoor":true,"familyFriendly":true,"tags":["halal","pizza;burger;sandwich","fast_food"],"source":"openstreetmap/overpass"}},{"type":"Feature","geometry":{"type":"Point","coordinates":[2.3923274,48.8878729]},"properties":{"id":"halal-10076734491","name":"Zhen Bao Fang","layer":"halal","type":"fast_food","dietary":["halal"],"indoor":true,"familyFriendly":true,"tags":["halal","asian","fast_food"],"source":"openstreetmap/overpass"}},{"type":"Feature","geometry":{"type":"Point","coordinates":[2.4193519,48.880681]},"properties":{"id":"halal-10135737725","name":"Boucherie H2","layer":"halal","type":"restaurant","address":"154 Rue de Paris","dietary":["halal"],"indoor":true,"familyFriendly":true,"tags":["halal"],"source":"openstreetmap/overpass"}},{"type":"Feature","geometry":{"type":"Point","coordinates":[2.4134052,48.8789802]},"properties":{"id":"halal-10135737740","name":"Boucherie des Lilas","layer":"halal","type":"restaurant","address":"64 Rue de Paris","dietary":["halal"],"indoor":true,"familyFriendly":true,"tags":["halal"],"source":"openstreetmap/overpass"}},{"type":"Feature","geometry":{"type":"Point","coordinates":[2.3168282,48.8287921]},"properties":{"id":"halal-10206905589","name":"Owit","layer":"halal","type":"fast_food","dietary":["halal"],"indoor":true,"familyFriendly":true,"tags":["halal","kebab;burger","fast_food"],"source":"openstreetmap/overpass"}},{"type":"Feature","geometry":{"type":"Point","coordinates":[2.3840282,48.8965915]},"properties":{"id":"halal-10241169111","name":"Boucheries Gordon","layer":"halal","type":"restaurant","dietary":["halal"],"indoor":true,"familyFriendly":true,"tags":["halal"],"source":"openstreetmap/overpass"}},{"type":"Feature","geometry":{"type":"Point","coordinates":[2.3743585,48.8983018]},"properties":{"id":"halal-10251484596","name":"Cantine Libanaise","layer":"halal","type":"restaurant","dietary":["halal"],"indoor":true,"familyFriendly":true,"tags":["halal","lebanese","restaurant"],"source":"openstreetmap/overpass"}},{"type":"Feature","geometry":{"type":"Point","coordinates":[2.4065959,48.8644777]},"properties":{"id":"halal-10251745555","name":"TH Factory","layer":"halal","type":"restaurant","dietary":["halal"],"indoor":true,"familyFriendly":true,"tags":["halal"],"source":"openstreetmap/overpass"}},{"type":"Feature","geometry":{"type":"Point","coordinates":[2.3773686,48.8576082]},"properties":{"id":"halal-10309310647","name":"Taem","layer":"halal","type":"restaurant","address":"14 Rue Popincourt","dietary":["halal"],"indoor":true,"familyFriendly":true,"tags":["halal","meat","restaurant"],"source":"openstreetmap/overpass"}},{"type":"Feature","geometry":{"type":"Point","coordinates":[2.3611651,48.8826053]},"properties":{"id":"halal-10553265389","name":"Jaffna Café","layer":"halal","type":"restaurant","dietary":["halal"],"indoor":true,"familyFriendly":true,"tags":["halal","indian","restaurant"],"source":"openstreetmap/overpass"}},{"type":"Feature","geometry":{"type":"Point","coordinates":[2.2997024,48.8475054]},"properties":{"id":"halal-10580941367","name":"so good","layer":"halal","type":"fast_food","address":"32 Rue Frémicourt","dietary":["halal"],"indoor":true,"familyFriendly":true,"tags":["halal","kebab;burger;tacos;pizza","fast_food"],"source":"openstreetmap/overpass"}},{"type":"Feature","geometry":{"type":"Point","coordinates":[2.3577553,48.8784819]},"properties":{"id":"halal-10598555652","name":"Fulkoli","layer":"halal","type":"restaurant","dietary":["halal"],"indoor":true,"familyFriendly":true,"tags":["halal"],"source":"openstreetmap/overpass"}},{"type":"Feature","geometry":{"type":"Point","coordinates":[2.3596919,48.8941068]},"properties":{"id":"halal-10603366997","name":"Chicken Street","layer":"halal","type":"fast_food","dietary":["halal"],"indoor":true,"familyFriendly":true,"tags":["halal","chicken","fast_food"],"source":"openstreetmap/overpass"}},{"type":"Feature","geometry":{"type":"Point","coordinates":[2.4128865,48.8765093]},