{"type":"FeatureCollection","features":[{"type":"Feature","geometry":{"type":"Point","coordinates":[2.332506,48.833981]},"properties":{"id":"culture-1520","name":"Les Catacombes de Paris","layer":"museums","type":"museum","address":"1 Avenue du Colonel Rol-Tanguy","arrondissement":"14e","indoor":true,"accessible":true,"familyFriendly":false,"romantic":false,"quiet":true,"budgetLevel":"medium","tags":["culture","museum","musées municipaux"],"source":"opendata.paris.fr/lieux-municipaux"}},{"type":"Feature","geometry":{"type":"Point","coordinates":[2.33398,48.843099]},"properties":{"id":"culture-2892","name":"Musée Zadkine","layer":"museums","type":"museum","address":"100 bis, rue d'Assas","arrondissement":"06e","indoor":true,"accessible":true,"familyFriendly":false,"romantic":false,"quiet":true,"budgetLevel":"medium","tags":["culture","museum","musées municipaux"],"source":"opendata.paris.fr/lieux-municipaux"}},{"type":"Feature","geometry":{"type":"Point","coordinates":[2.313855,48.866246]},"properties":{"id":"culture-1526","name":"Petit Palais - Musée des beaux-arts de la Ville de Paris","layer":"museums","type":"museum","address":"2 avenue Winston-Churchill","arrondissement":"08e","indoor":true,"accessible":true,"familyFriendly":false,"romantic":true,"quiet":true,"budgetLevel":"low","tags":["culture","museum","musées municipaux"],"source":"opendata.paris.fr/lieux-municipaux"}},{"type":"Feature","geometry":{"type":"Point","coordinates":[2.318588,48.842975]},"properties":{"id":"culture-13","name":"Musée Bourdelle","layer":"museums","type":"museum","address":"18, rue Antoine Bourdelle","arrondissement":"15e","indoor":true,"accessible":true,"familyFriendly":false,"romantic":false,"quiet":true,"budgetLevel":"medium","tags":["culture","museum","musées municipaux"],"source":"opendata.paris.fr/lieux-municipaux"}},{"type":"Feature","geometry":{"type":"Point","coordinates":[2.3018,48.86295]},"properties":{"id":"culture-5059","name":"Musée des égouts de Paris","layer":"museums","type":"museum","address":"Pont de l'Alma","arrondissement":"07e","indoor":true,"accessible":true,"familyFriendly":false,"romantic":false,"quiet":true,"budgetLevel":"medium","tags":["culture","museum","musées municipaux"],"source":"opendata.paris.fr/lieux-municipaux"}},{"type":"Feature","geometry":{"type":"Point","coordinates":[2.333289,48.880901]},"properties":{"id":"culture-1524","name":"Musée de la Vie romantique, Hôtel Scheffer-Renan","layer":"museums","type":"museum","address":"16 rue Chaptal","arrondissement":"09e","indoor":true,"accessible":true,"familyFriendly":false,"romantic":true,"quiet":true,"budgetLevel":"medium","tags":["culture","museum","musées municipaux"],"source":"opendata.paris.fr/lieux-municipaux"}},{"type":"Feature","geometry":{"type":"Point","coordinates":[2.361468,48.858202]},"properties":{"id":"culture-1519","name":"Musée Cognacq-Jay","layer":"museums","type":"museum","address":"8 rue Elzévir","arrondissement":"03e","indoor":true,"accessible":true,"familyFriendly":false,"romantic":false,"quiet":true,"budgetLevel":"medium","tags":["culture","museum","musées municipaux"],"source":"opendata.paris.fr/lieux-municipaux"}},{"type":"Feature","geometry":{"type":"Point","coordinates":[2.312456,48.879638]},"properties":{"id":"culture-1521","name":"Musée Cernuschi - Musée des arts de l'Asie de la Ville de Paris","layer":"museums","type":"museum","address":"7 avenue Velasquez","arrondissement":"08e","indoor":true,"accessible":true,"familyFriendly":false,"romantic":false,"quiet":true,"budgetLevel":"medium","tags":["culture","museum","musées municipaux"],"source":"opendata.paris.fr/lieux-municipaux"}},{"type":"Feature","geometry":{"type":"Point","coordinates":[2.296443,48.865964]},"properties":{"id":"culture-1522","name":"Palais  Galliera - musée de la Mode de Paris","layer":"museums","type":"museum","address":"10 avenue Pierre 1er de Serbie","arrondissement":"16e","indoor":true,"accessible":true,"familyFriendly":false,"romantic":false,"quiet":true,"budgetLevel":"medium","tags":["culture","museum","musées municipaux"],"source":"opendata.paris.fr/lieux-municipaux"}},{"type":"Feature","geometry":{"type":"Point","coordinates":[2.366132,48.854821]},"properties":{"id":"culture-62","name":"Maison de Victor Hugo","layer":"museums","type":"museum","address":"6 place des Vosges","arrondissement":"04e","indoor":true,"accessible":true,"familyFriendly":false,"romantic":false,"quiet":true,"budgetLevel":"medium","tags":["culture","museum","musées municipaux"],"source":"opendata.paris.fr/lieux-municipaux"}},{"type":"Feature","geometry":{"type":"Point","coordinates":[2.331883,48.834006]},"properties":{"id":"culture-1525","name":"Musée de la Libération de Paris - Musée du général Leclerc - Musée Jean Moulin","layer":"museums","type":"museum","address":"4 avenue du colonel Henri Rol-Tanguy","arrondissement":"14e","indoor":true,"accessible":true,"familyFriendly":false,"romantic":false,"quiet":true,"budgetLevel":"medium","tags":["culture","museum","musées municipaux"],"source":"opendata.paris.fr/lieux-municipaux"}},{"type":"Feature","geometry":{"type":"Point","coordinates":[2.348751,48.853625]},"properties":{"id":"culture-2894","name":"Crypte archéologique de l'île de la Cité","layer":"museums","type":"museum","address":"Place Jean-Paul II","arrondissement":"04e","indoor":true,"accessible":true,"familyFriendly":false,"romantic":false,"quiet":true,"budgetLevel":"medium","tags":["culture","museum","musées municipaux"],"source":"opendata.paris.fr/lieux-municipaux"}},{"type":"Feature","geometry":{"type":"Point","coordinates":[2.280847,48.855356]},"properties":{"id":"culture-1516","name":"Maison de Balzac musée et bibliothèque","layer":"museums","type":"museum","address":"47, rue Raynouard","arrondissement":"16e","indoor":true,"accessible":true,"familyFriendly":false,"romantic":false,"quiet":true,"budgetLevel":"medium","tags":["culture","museum","musées municipaux"],"source":"opendata.paris.fr/lieux-municipaux"}},{"type":"Feature","geometry":{"type":"Point","coordinates":[2.36279,48.856981]},"properties":{"id":"culture-1518","name":"Musée Carnavalet - Histoire de Paris","layer":"museums","type":"museum","address":"23, rue Madame de Sévigné","arrondissement":"03e","indoor":true,"accessible":true,"familyFriendly":false,"romantic":false,"quiet":true,"budgetLevel":"low","tags":["culture","museum","musées municipaux"],"source":"opendata.paris.fr/lieux-municipaux"}},{"type":"Feature","geometry":{"type":"Point","coordinates":[2.297008,48.864641]},"properties":{"id":"culture-7","name":"Musée d'Art Moderne de Paris","layer":"museums","type":"museum","address":"11, avenue du Président Wilson","arrondissement":"16e","indoor":true,"accessible":true,"familyFriendly":false,"romantic":false,"quiet":true,"budgetLevel":"medium","tags":["culture","museum","musées municipaux"],"source":"opendata.paris.fr/lieux-municipaux"}},{"type":"Feature","geometry":{"type":"Point","coordinates":[2.437933,48.839295]},"properties":{"id":"culture-3412","name":"Théâtre de Guignol au Parc Floral","layer":"museums","type":"cultural-venue","address":"118 route de la Pyramide","arrondissement":"12e","indoor":true,"accessible":true,"familyFriendly":false,"romantic":false,"quiet":true,"budgetLevel":"medium","tags":["culture","venue","théâtres et établissements culturels soutenus"],"source":"opendata.paris.fr/lieux-municipaux"}},{"type":"Feature","geometry":{"type":"Point","coordinates":[2.337389,48.884824]},"properties":{"id":"culture-19184","name":"Théâtre de la Ville - Abbesses","layer":"museums","type":"cultural-venue","address":"31 rue des Abbesses","arrondissement":"18e","indoor":true,"accessible":false,"familyFriendly":false,"romantic":false,"quiet":true,"budgetLevel":"medium","tags":["culture","venue","théâtres et établissements culturels soutenus"],"source":"opendata.paris.fr/lieux-municipaux"}},{"type":"Feature","geometry":{"type":"Point","coordinates":[2.301819,48.830303]},"properties":{"id":"culture-1622","name":"Théâtre Silvia Monfort","layer":"museums","type":"cultural-venue","address":"106 RUE BRANCION","arrondissement":"15e","indoor":true,"accessible":true,"familyFriendly":false,"romantic":false,"quiet":true,"budgetLevel":"medium","tags":["culture","venue","théâtres et établissements culturels soutenus"],"source":"opendata.paris.fr/lieux-municipaux"}},{"type":"Feature","geometry":{"type":"Point","coordinates":[2.455035,48.83592]},"properties":{"id":"culture-19193","name":"Atelier de Paris - Carolyn Carlson","layer":"museums","type":"cultural-venue","address":"2 route du Champ de Manœuvre","arrondissement":"12e","indoor":true,"accessible":true,"familyFriendly":false,"romantic":false,"quiet":true,"budgetLevel":"medium","tags":["culture","venue","théâtres et établissements culturels soutenus"],"source":"opendata.paris.fr/lieux-municipaux"}},{"type":"Feature","geometry":{"type":"Point","coordinates":[2.332942,48.881325]},"properties":{"id":"culture-16880","name":"International Visual Theatre","layer":"museums","type":"cultural-venue","address":"7 Cité Chaptal","arrondissement":"09e","indoor":true,"accessible":false,"familyFriendly":false,"romantic":false,"quiet":true,"budgetLevel":"medium","tags":["culture","venue","théâtres et établissements culturels soutenus"],"source":"opendata.paris.fr/lieux-municipaux"}},{"type":"Feature","geometry":{"type":"Point","coordinates":[2.375462,48.887142]},"properties":{"id":"culture-3419","name":"Théâtre Abricadabra","layer":"museums","type":"cultural-venue","address":"55, quai de la Seine","arrondissement":"19e","indoor":true,"accessible":false,"familyFriendly":false,"romantic":false,"quiet":true,"budgetLevel":"medium","tags":["culture","venue","théâtres et établissements culturels soutenus"],"source":"opendata.paris.fr/lieux-municipaux"}},{"type":"Feature","geometry":{"type":"Point","coordinates":[2.375347,48.855907]},"properties":{"id":"culture-1426","name":"Théâtre de la Bastille","layer":"museums","type":"cultural-venue","address":"76 rue de la Roquette","arrondissement":"11e","indoor":true,"accessible":false,"familyFriendly":false,"romantic":false,"quiet":true,"budgetLevel":"medium","tags":["culture","venue","théâtres et établissements culturels soutenus"],"source":"opendata.paris.fr/lieux-municipaux"}},{"type":"Feature","geometry":{"type":"Point","coordinates":[2.377855,48.867741]},"properties":{"id":"culture-19180","name":"La Maison des Métallos","layer":"museums","type":"cultural-venue","address":"94, rue Jean-Pierre Timbaud","arrondissement":"11e","indoor":true,"accessible":true,"familyFriendly":false,"romantic":false,"quiet":true,"budgetLevel":"medium","tags":["culture","venue","théâtres et établissements culturels soutenus"],"source":"opendata.paris.fr/lieux-municipaux"}},{"type":"Feature","geometry":{"type":"Point","coordinates":[2.345697,48.83037]},"properties":{"id":"culture-1643","name":"Théâtre 13 - Glacière","layer":"museums","type":"cultural-venue","address":"103 A boulevard Auguste Blanqui","arrondissement":"13e","indoor":true,"accessible":true,"familyFriendly":false,"romantic":false,"quiet":true,"budgetLevel":"medium","tags":["culture","venue","théâtres et établissements culturels soutenus"],"source":"opendata.paris.fr/lieux-municipaux"}},{"type":"Feature","geometry":{"type":"Point","coordinates":[2.349866,48.883472]},"properties":{"id":"culture-20348","name":"Le Louxor","layer":"museums","type":"cultural-venue","address":"170 boulevard de Magenta","arrondissement":"10e","indoor":true,"accessible":true,"familyFriendly":false,"romantic":false,"quiet":true,"budgetLevel":"medium","tags":["culture","venue","théâtres et établissements culturels soutenus"],"source":"opendata.paris.fr/lieux-municipaux"}},{"type":"Feature","geometry":{"type":"Point","coordinates":[2.348127,48.864075]},"properties":{"id":"culture-3427","name":"Tour Jean sans Peur","layer":"museums","type":"cultural-venue","address":"20 rue Étienne Marcel","arrondissement":"02e","indoor":true,"accessible":false,"familyFriendly":false,"romantic":false,"quiet":true,"budgetLevel":"medium","tags":["culture","venue","théâtres et établissements culturels soutenus"],"source":"opendata.paris.fr/lieux-municipaux"}},{"type":"Feature","geometry":{"type":"Point","coordinates":[2.366646,48.886555]},"properties":{"id":"culture-3430","name":"Le Grand Parquet","layer":"museums","type":"cultural-venue","address":"Jardins d'Eole - 35 rue d'Aubervilliers","arrondissement":"18e","indoor":true,"accessible":false,"familyFriendly":false,"romantic":false,"quiet":true,"budgetLevel":"medium","tags":["culture","venue","théâtres et établissements culturels soutenus"],"source":"opendata.paris.fr/lieux-municipaux"}},{"type":"Feature","geometry":{"type":"Point","coordinates":[2.346758,48.857614]},"properties":{"id":"culture-19182","name":"Théâtre du Châtelet","layer":"museums","type":"cultural-venue","address":"1 place du Châtelet","arrondissement":"01e","indoor":true,"accessible":true,"familyFriendly":false,"romantic":false,"quiet":true,"budgetLevel":"medium","tags":["culture","venue","théâtres et établissements culturels soutenus"],"source":"opendata.paris.fr/lieux-municipaux"}},{"type":"Feature","geometry":{"type":"Point","coordinates":[2.389135,48.867893]},"properties":{"id":"culture-19188","name":"Les Plateaux Sauvages","layer":"museums","type":"cultural-venue","address":"5 rue des Plâtrières","arrondissement":"20e","indoor":true,"accessible":true,"familyFriendly":false,"romantic":false,"quiet":true,"budgetLevel":"medium","tags":["culture","venue","théâtres et établissements culturels soutenus"],"source":"opendata.paris.fr/lieux-municipaux"}},{"type":"Feature","geometry":{"type":"Point","coordinates":[2.382029,48.88263]},"properties":{"id":"culture-20070","name":"Théâtre de Guignol Anatole","layer":"museums","type":"cultural-venue","address":"Place Armand-Carrel","arrondissement":"19e","indoor":true,"accessible":true,"familyFriendly":false,"romantic":false,"quiet":true,"budgetLevel":"medium","tags":["culture","venue","théâtres et établissements culturels soutenus"],"source":"opendata.paris.fr/lieux-municipaux"}},{"type":"Feature","geometry":{"type":"Point","coordinates":[2.33447,48.883447]},"properties":{"id":"culture-19186","name":"Les trois baudets","layer":"museums","type":"cultural-venue","address":"64 boulevard de Clichy","arrondissement":"18e","indoor":true,"accessible":false,"familyFriendly":false,"romantic":false,"quiet":true,"budgetLevel":"medium","tags":["culture","venue","théâtres et établissements culturels soutenus"],"source":"opendata.paris.fr/lieux-municipaux"}},{"type":"Feature","geometry":{"type":"Point","coordinates":[2.318928,48.867426]},"properties":{"id":"culture-20399","name":"Théâtre de la Concorde","layer":"museums","type":"cultural-venue","address":"1, avenue Gabriel","arrondissement":"08e","indoor":true,"accessible":true,"familyFriendly":false,"romantic":false,"quiet":true,"budgetLevel":"medium","tags":["culture","venue","théâtres et établissements culturels soutenus"],"source":"opendata.paris.fr/lieux-municipaux"}},{"type":"Feature","geometry":{"type":"Point","coordinates":[2.349388,48.858254]},"properties":{"id":"culture-5045","name":"Tour Saint-Jacques","layer":"museums","type":"cultural-venue","address":"88 rue de Rivoli","arrondissement":"04e","indoor":true,"accessible":true,"familyFriendly":false,"romantic":false,"quiet":true,"budgetLevel":"medium","tags":["culture","venue","théâtres et établissements culturels soutenus"],"source":"opendata.paris.fr/lieux-municipaux"}},{"type":"Feature","geometry":{"type":"Point","coordinates":[2.347644,48.861819]},"properties":{"id":"culture-18289","name":"La Place","layer":"museums","type":"cultural-venue","address":"10 passage de la Canopée","arrondissement":"01e","indoor":true,"accessible":true,"familyFriendly":false,"romantic":false,"quiet":true,"budgetLevel":"medium","tags":["culture","venue","théâtres et établissements culturels soutenus"],"source":"opendata.paris.fr/lieux-municipaux"}},{"type":"Feature","geometry":{"type":"Point","coordinates":[2.381189,48.877003]},"properties":{"id":"culture-3411","name":"Théâtre Anatole au parc des Buttes Chaumont","layer":"museums","type":"cultural-venue","address":"1 rue Botzaris","arrondissement":"19e","indoor":true,"accessible":false,"familyFriendly":false,"romantic":false,"quiet":true,"budgetLevel":"medium","tags":["culture","venue","théâtres et établissements culturels soutenus"],"source":"opendata.paris.fr/lieux-municipaux"}},{"type":"Feature","geometry":{"type":"Point","coordinates":[2.339934,48.824187]},"properties":{"id":"culture-3414","name":"Théâtre de Guignol du parc Montsouris","layer":"museums","type":"cultural-venue","address":"2 rue Gazan","arrondissement":"14e","indoor":true,"accessible":true,"familyFriendly":false,"romantic":false,"quiet":true,"budgetLevel":"medium","tags":["culture","venue","théâtres et établissements culturels soutenus"],"source":"opendata.paris.fr/lieux-municipaux"}},{"type":"Feature","geometry":{"type":"Point","coordinates":[2.287282,48.875191]},"properties":{"id":"culture-3418","name":"Théâtre du Jardin","layer":"museums","type":"cultural-venue","address":"1 rue du Bois de Boulogne","arrondissement":"16e","indoor":true,"accessible":false,"familyFriendly":false,"romantic":false,"quiet":true,"budgetLevel":"medium","tags":["culture","venue","théâtres et établissements culturels soutenus"],"source":"opendata.paris.fr/lieux-municipaux"}},{"type":"Feature","geometry":{"type":"Point","coordinates":[2.370542,48.83318]},"properties":{"id":"culture-20072","name":"Théâtre Dunois","layer":"museums","type":"cultural-venue","address":"7 Rue Louise Weiss","arrondissement":"13e","indoor":true,"accessible":true,"familyFriendly":false,"romantic":false,"quiet":true,"budgetLevel":"medium","tags":["culture","venue","théâtres et établissements culturels soutenus"],"source":"opendata.paris.fr/lieux-municipaux"}},{"type":"Feature","geometry":{"type":"Point","coordinates":[2.310942,48.869637]},"properties":{"id":"culture-3413","name":"Théâtre de Guignol aux Champs-Elysées (plein air)","layer":"museums","type":"cultural-venue","address":"1 avenue Matignon","arrondissement":"08e","indoor":true,"accessible":true,"familyFriendly":false,"romantic":false,"quiet":true,"budgetLevel":"medium","tags":["culture","venue","théâtres et établissements culturels soutenus"],"source":"opendata.paris.fr/lieux-municipaux"}},{"type":"Feature","geometry":{"type":"Point","coordinates":[2.382456,48.882258]},"properties":{"id":"culture-20071","name":"Théâtre Le Guignol de Paris","layer":"museums","type":"cultural-venue","address":"Place Armand-Carrel","arrondissement":"19e","indoor":true,"accessible":true,"familyFriendly":false,"romantic":false,"quiet":true,"budgetLevel":"medium","tags":["culture","venue","théâtres et établissements culturels soutenus"],"source":"opendata.paris.fr/lieux-municipaux"}},{"type":"Feature","geometry":{"type":"Point","coordinates":[2.277665,48.854605]},"properties":{"id":"culture-16501","name":"Théâtre Le Ranelagh","layer":"museums","type":"cultural-venue","address":"5 Rue des Vignes","arrondissement":"16e","indoor":true,"accessible":false,"familyFriendly":false,"romantic":false,"quiet":true,"budgetLevel":"medium","tags":["culture","venue","théâtres et établissements culturels soutenus"],"source":"opendata.paris.fr/lieux-municipaux"}},{"type":"Feature","geometry":{"type":"Point","coordinates":[2.371506,48.889983]},"properties":{"id":"culture-3990","name":"Le CENTQUATRE - PARIS","layer":"museums","type":"cultural-venue","address":"5 rue Curial","arrondissement":"19e","indoor":true,"accessible":true,"familyFriendly":false,"romantic":false,"quiet":true,"budgetLevel":"medium","tags":["culture","venue","théâtres et établissements culturels soutenus"],"source":"opendata.paris.fr/lieux-municipaux"}},{"type":"Feature","geometry":{"type":"Point","coordinates":[2.358956,48.855121]},"properties":{"id":"culture-19189","name":"Maison Européenne de la Photographie","layer":"museums","type":"cultural-venue","address":"5 rue de fourcy","arrondissement":"04e","indoor":true,"accessible":false,"familyFriendly":false,"romantic":false,"quiet":true,"budgetLevel":"medium","tags":["culture","venue","théâtres et établissements culturels soutenus"],"source":"opendata.paris.fr/lieux-municipaux"}},{"type":"Feature","geometry":{"type":"Point","coordinates":[2.38112,48.856651]},"properties":{"id":"culture-1372","name":"Théâtre Artistic Athévains","layer":"museums","type":"cultural-venue","address":"45 Bis rue Richard Lenoir","arrondissement":"11e","indoor":true,"accessible":false,"familyFriendly":false,"romantic":false,"quiet":true,"budgetLevel":"medium","tags":["culture","venue","théâtres et établissements culturels soutenus"],"source":"opendata.paris.fr/lieux-municipaux"}},{"type":"Feature","geometry":{"type":"Point","coordinates":[2.370869,48.86312]},"properties":{"id":"culture-20650","name":"Bataclan","layer":"museums","type":"cultural-venue","address":"50 boulevard Voltaire","arrondissement":"11e","indoor":true,"accessible":true,"familyFriendly":false,"romantic":false,"quiet":true,"budgetLevel":"medium","tags":["culture","venue","théâtres et établissements culturels soutenus"],"source":"opendata.paris.fr/lieux-municipaux"}},{"type":"Feature","geometry":{"type":"Point","coordinates":[2.393824,48.889311]},"properties":{"id":"culture-19178","name":"La Philharmonie de Paris","layer":"museums","type":"cultural-venue","address":"221 Avenue Jean Jaurès","arrondissement":"19e","indoor":true,"accessible":true,"familyFriendly":false,"romantic":false,"quiet":true,"budgetLevel":"medium","tags":["culture","venue","théâtres et établissements culturels soutenus"],"source":"opendata.paris.fr/lieux-municipaux"}},{"type":"Feature","geometry":{"type":"Point","coordinates":[2.414576,48.766328]},"properties":{"id":"culture-16497","name":"Théâtre de Choisy (plein air)","layer":"museums","type":"cultural-venue","address":"4 Avenue Villeneuve Saint-Georges","indoor":true,"accessible":false,"familyFriendly":false,"romantic":false,"quiet":true,"budgetLevel":"medium","tags":["culture","venue","théâtres et établissements culturels soutenus"],"source":"opendata.paris.fr/lieux-municipaux"}},{"type":"Feature","geometry":{"type":"Point","coordinates":[2.354046,48.884338]},"properties":{"id":"culture-19185","name":"FGO-Barbara","layer":"museums","type":"cultural-venue","address":"1 rue Fleury","arrondissement":"18e","indoor":true,"accessible":true,"familyFriendly":false,"romantic":false,"quiet":true,"budgetLevel":"medium","tags":["culture","venue","théâtres et établissements culturels soutenus"],"source":"opendata.paris.fr/lieux-municipaux"}},{"type":"Feature","geometry":{"type":"Point","coordinates":[2.353435,48.887787]},"properties":{"id":"culture-19181","name":"Institut des Cultures d'Islam (ICI)","layer":"museums","type":"cultural-venue","address":"19 rue Léon","arrondissement":"18e","indoor":true,"accessible":true,"familyFriendly":false,"romantic":false,"quiet":true,"budgetLevel":"medium","tags":["culture","venue","théâtres et établissements culturels soutenus"],"source":"opendata.paris.fr/lieux-municipaux"}},{"type":"Feature","geometry":{"type":"Point","coordinates":[2.394431,48.889095]},"properties":{"id":"culture-1639","name":"Théâtre Paris - Villette","layer":"museums","type":"cultural-venue","address":"211 avenue Jean Jaurès","arrondissement":"19e","indoor":true,"accessible":false,"familyFriendly":false,"romantic":false,"quiet":true,"budgetLevel":"medium","tags":["culture","venue","théâtres et établissements culturels soutenus"],"source":"opendata.paris.fr/lieux-municipaux"}},{"type":"Feature","geometry":{"type":"Point","coordinates":[2.394018,48.869929]},"properties":{"id":"culture-19204","name":"Carré de Baudouin","layer":"museums","type":"cultural-venue","address":"121 rue de Ménilmontant","arrondissement":"20e","indoor":true,"accessible":true,"familyFriendly":false,"romantic":false,"quiet":true,"budgetLevel":"medium","tags":["culture","venue","théâtres et établissements culturels soutenus"],"source":"opendata.paris.fr/lieux-municipaux"}},{"type":"Feature","geometry":{"type":"Point","coordinates":[2.377226,48.827601]},"properties":{"id":"culture-19191","name":"Théâtre 13 - Bibliothèque","layer":"museums","type":"cultural-venue","address":"30 rue du Chevaleret","arrondissement":"13e","indoor":true,"accessible":true,"familyFriendly":false,"romantic":false,"quiet":true,"budgetLevel":"medium","tags":["culture","venue","théâtres et établissements culturels soutenus"],"source":"opendata.paris.fr/lieux-municipaux"}},{"type":"Feature","geometry":{"type":"Point","coordinates":[2.34779,48.857346]},"properties":{"id":"culture-19183","name":"Théâtre Sarah Bernhardt (ex Théâtre de la Ville)","layer":"museums","type":"cultural-venue","address":"2 place du chatelet","arrondissement":"04e","indoor":true,"accessible":true,"familyFriendly":false,"romantic":false,"quiet":true,"budgetLevel":"medium","tags":["culture","venue","théâtres et établissements culturels soutenus"],"source":"opendata.paris.fr/lieux-municipaux"}},{"type":"Feature","geometry":{"type":"Point","coordinates":[2.353523,48.866682]},"properties":{"id":"culture-6461","name":"La Gaîté lyrique","layer":"museums","type":"cultural-venue","address":"3bis rue Papin","arrondissement":"03e","indoor":true,"accessible":true,"familyFriendly":false,"romantic":false,"quiet":true,"budgetLevel":"medium","tags":["culture","venue","théâtres et établissements culturels soutenus"],"source":"opendata.paris.fr/lieux-municipaux"}},{"type":"Feature","geometry":{"type":"Point","coordinates":[2.351562,48.862313]},"properties":{"id":"culture-1628","name":"La Maison de la Poésie","layer":"museums","type":"cultural-venue","address":"Passage Molière, 157 rue Saint Martin","arrondissement":"03e","indoor":true,"accessible":false,"familyFriendly":false,"romantic":false,"quiet":true,"budgetLevel":"medium","tags":["culture","venue","théâtres et établissements culturels soutenus"],"source":"opendata.paris.fr/lieux-municipaux"}},{"type":"Feature","geometry":{"type":"Point","coordinates":[2.361483,48.864697]},"properties":{"id":"culture-19179","name":"Le Carreau du Temple","layer":"museums","type":"cultural-venue","address":"2 rue Perrée","arrondissement":"03e","indoor":true,"accessible":false,"familyFriendly":false,"romantic":false,"quiet":true,"budgetLevel":"medium","tags":["culture","venue","théâtres et établissements culturels soutenus"],"source":"opendata.paris.fr/lieux-municipaux"}},{"type":"Feature","geometry":{"type":"Point","coordinates":[2.409405,48.877871]},"properties":{"id":"culture-19194","name":"Le Cirque Electrique","layer":"museums","type":"cultural-venue","address":"Place du Maquis en Vercors","arrondissement":"20e","indoor":true,"accessible":false,"familyFriendly":false,"romantic":false,"quiet":true,"budgetLevel":"medium","tags":["culture","venue","théâtres et établissements culturels soutenus"],"source":"opendata.paris.fr/lieux-municipaux"}},{"type":"Feature","geometry":{"type":"Point","coordinates":[2.34982,48.842213]},"properties":{"id":"culture-19187","name":"Le Mouffetard, Théâtre des arts de la Marionnette","layer":"museums","type":"cultural-venue","address":"73 rue Mouffetard","arrondissement":"05e","indoor":true,"accessible":false,"familyFriendly":false,"romantic":false,"quiet":true,"budgetLevel":"medium","tags":["culture","venue","théâtres et établissements culturels soutenus"],"source":"opendata.paris.fr/lieux-municipaux"}},{"type":"Feature","geometry":{"type":"Point","coordinates":[2.306862,48.826027]},"properties":{"id":"culture-1630","name":"Théâtre 14","layer":"museums","type":"cultural-venue","address":"20, avenue Marc Sangnier","arrondissement":"14e","indoor":true,"accessible":false,"familyFriendly":false,"romantic":false,"quiet":true,"budgetLevel":"medium","tags":["culture","venue","théâtres et établissements culturels soutenus"],"source":"opendata.paris.fr/lieux-municipaux"}},{"type":"Feature","geometry":{"type":"Point","coordinates":[2.310777,48.867743]},"properties":{"id":"culture-1632","name":"Théâtre du Rond Point","layer":"museums","type":"cultural-venue","address":"2bis avenue Franklin D. Roosevelt","arrondissement":"08e","indoor":true,"accessible":false,"familyFriendly":false,"romantic":false,"quiet":true,"budgetLevel":"medium","tags":["culture","venue","théâtres et établissements culturels soutenus"],"source":"opendata.paris.fr/lieux-municipaux"}},{"type":"Feature","geometry":{"type":"Point","coordinates":[2.382589,48.836209]},"properties":{"id":"culture-20456","name":"Maison de l'animal en ville - Jane Goodall","layer":"museums","type":"cultural-venue","address":"Chai de Bercy, 41 rue Paul Belmondo","arrondissement":"12e","indoor":true,"accessible":true,"familyFriendly":false,"romantic":false,"quiet":true,"budgetLevel":"medium","tags":["culture","venue","lieux de decouverte et d initiation"],"source":"opendata.paris.fr/lieux-municipaux"}},{"type":"Feature","geometry":{"type":"Point","coordinates":[2.285064,48.840074]},"properties":{"id":"culture-17397","name":"Le Patronage Laïque Jules-Vallès","layer":"museums","type":"cultural-venue","address":"72 avenue Félix Faure","arrondissement":"15e","indoor":true,"accessible":true,"familyFriendly":false,"romantic":false,"quiet":true,"budgetLevel":"medium","tags":["culture","venue","lieux de decouverte et d initiation"],"source":"opendata.paris.fr/lieux-municipaux"}},{"type":"Feature","geometry":{"type":"Point","coordinates":[2.355693,48.856188]},"properties":{"id":"culture-19860","name":"Académie du climat","layer":"museums","type":"cultural-venue","address":"2 place Baudoyer","arrondissement":"04e","indoor":true,"accessible":true,"familyFriendly":false,"romantic":false,"quiet":true,"budgetLevel":"medium","tags":["culture","venue","lieux de decouverte et d initiation"],"source":"opendata.paris.fr/lieux-municipaux"}},{"type":"Feature","geometry":{"type":"Point","coordinates":[2.383506,48.835808]},"properties":{"id":"culture-1788","name":"Maison du Jardinage et du Compostage","layer":"museums","type":"cultural-venue","address":"41, rue Paul-Belmondo - Parc de Bercy","arrondissement":"12e","indoor":true,"accessible":true,"familyFriendly":false,"romantic":false,"quiet":true,"budgetLevel":"medium","tags":["culture","venue","lieux de decouverte et d initiation"],"source":"opendata.paris.fr/lieux-municipaux"}},{"type":"Feature","geometry":{"type":"Point","coordinates":[2.444368,48.820841]},"properties":{"id":"culture-6597","name":"La Ferme de Paris","layer":"museums","type":"cultural-venue","address":"24 route de la Tourelle","arrondissement":"12e","indoor":true,"accessible":true,"familyFriendly":false,"romantic":false,"quiet":true,"budgetLevel":"medium","tags":["culture","venue","lieux de decouverte et d initiation"],"source":"opendata.paris.fr/lieux-municipaux"}},{"type":"Feature","geometry":{"type":"Point","coordinates":[2.461709,48.819258]},"properties":{"id":"culture-20551","name":"Pollinarium de la Ville de Paris","layer":"museums","type":"cultural-venue","address":"1 route de la Pyramide","arrondissement":"12e","indoor":true,"accessible":true,"familyFriendly":false,"romantic":false,"quiet":true,"budgetLevel":"medium","tags":["culture","venue","lieux de decouverte et d initiation"],"source":"opendata.paris.fr/lieux-municipaux"}},{"type":"Feature","geometry":{"type":"Point","coordinates":[2.395622,48.876568]},"properties":{"id":"culture-20419","name":"Maison des réfugiés","layer":"museums","type":"cultural-venue","address":"10 bis rue Henri Ribière","arrondissement":"19e","indoor":true,"accessible":true,"familyFriendly":false,"romantic":false,"quiet":true,"budgetLevel":"medium","tags":["culture","venue","lieux de decouverte et d initiation"],"source":"opendata.paris.fr/lieux-municipaux"}},{"type":"Feature","geometry":{"type":"Point","coordinates":[2.389561,48.842601]},"properties":{"id":"culture-20184","name":"Espace Reuilly","layer":"museums","type":"cultural-venue","address":"1 rue Riesener","arrondissement":"12e","indoor":true,"accessible":true,"familyFriendly":false,"romantic":false,"quiet":true,"budgetLevel":"medium","tags":["culture","venue","lieux de decouverte et d initiation"],"source":"opendata.paris.fr/lieux-municipaux"}},{"type":"Feature","geometry":{"type":"Point","coordinates":[2.457096,48.823505]},"properties":{"id":"culture-19170","name":"Le jardin de l'École Du Breuil","layer":"museums","type":"cultural-venue","address":"Route de la Ferme","arrondissement":"12e","indoor":true,"accessible":true,"familyFriendly":false,"romantic":false,"quiet":true,"budgetLevel":"medium","tags":["culture","venue","lieux de decouverte et d initiation"],"source":"opendata.paris.fr/lieux-municipaux"}},{"type":"Feature","geometry":{"type":"Point","coordinates":[2.377682,48.880857]},"properties":{"id":"culture-20543","name":"Espace sportif Pailleron","layer":"museums","type":"cultural-venue","address":"32, rue  Edouard Pailleron","arrondissement":"19e","indoor":true,"accessible":true,"familyFriendly":false,"romantic":false,"quiet":true,"budgetLevel":"medium","tags":["culture","venue","lieux de decouverte et d initiation"],"source":"opendata.paris.fr/lieux-municipaux"}},{"type":"Feature","geometry":{"type":"Point","coordinates":[2.253366,48.865072]},"properties":{"id":"culture-20398","name":"Fondation Good Planet","layer":"museums","type":"cultural-venue","address":"1, Carrefour de Longchamp - Bois de Boulogne","indoor":true,"accessible":true,"familyFriendly":false,"romantic":false,"quiet":true,"budgetLevel":"medium","tags":["culture","venue","lieux de decouverte et d initiation"],"source":"opendata.paris.fr/lieux-municipaux"}},{"type":"Feature","geometry":{"type":"Point","coordinates":[2.353868,48.855837]},"properties":{"id":"culture-20647","name":"Jardin mémoriel des attentats du 13 novembre 2015","layer":"museums","type":"cultural-venue","address":"Place Saint-Gervais","arrondissement":"04e","indoor":true,"accessible":true,"familyFriendly":false,"romantic":false,"quiet":true,"budgetLevel":"medium","tags":["culture","venue","lieux de decouverte et d initiation"],"source":"opendata.paris.fr/lieux-municipaux"}},{"type":"Feature","geometry":{"type":"Point","coordinates":[2.444716,48.83708]},"properties":{"id":"culture-20646","name":"Le Jardin des Papillons","layer":"museums","type":"cultural-venue","address":"Route de la Pyramide","arrondissement":"12e","indoor":true,"accessible":true,"familyFriendly":false,"romantic":false,"quiet":true,"budgetLevel":"medium","tags":["culture","venue","lieux de decouverte et d initiation"],"source":"opendata.paris.fr/lieux-municipaux"}},{"type":"Feature","geometry":{"type":"Point","coordinates":[2.346304,48.861469]},"properties":{"id":"culture-16088","name":"Terrain d'aventures du jardin Nelson Mandela","layer":"museums","type":"cultural-venue","address":"32 rue Berger","arrondissement":"01e","indoor":true,"accessible":true,"familyFriendly":false,"romantic":false,"quiet":true,"budgetLevel":"medium","tags":["culture","venue","lieux de decouverte et d initiation"],"source":"opendata.paris.fr/lieux-municipaux"}},{"type":"Feature","geometry":{"type":"Point","coordinates":[2.441571,48.839621]},"properties":{"id":"culture-6620","name":"Bibliothèque de la Maison Paris Nature","layer":"museums","type":"cultural-venue","address":"Pavillon 2 du Parc Floral de Paris, Route de la Pyramide","arrondissement":"12e","indoor":true,"accessible":true,"familyFriendly":false,"romantic":false,"quiet":true,"budgetLevel":"medium","tags":["culture","venue","lieux de decouverte et d initiation"],"source":"opendata.paris.fr/lieux-municipaux"}},{"type":"Feature","geometry":{"type":"Point","coordinates":[2.325682,48.842093]},"properties":{"id":"culture-20403","name":"Galerie du Montparnasse","layer":"museums","type":"cultural-venue","address":"55 rue de Montparnasse","arrondissement":"14e","indoor":true,"accessible":true,"familyFriendly":false,"romantic":false,"quiet":true,"budgetLevel":"medium","tags":["culture","venue","lieux de decouverte et d initiation"],"source":"opendata.paris.fr/lieux-municipaux"}},{"type":"Feature","geometry":{"type":"Point","coordinates":[2.356896,48.859031]},"properties":{"id":"culture-8687","name":"Maison des Acteurs du Paris durable","layer":"museums","type":"cultural-venue","address":"21, rue des Blancs-Manteaux","arrondissement":"04e","indoor":true,"accessible":false,"familyFriendly":false,"romantic":false,"quiet":true,"budgetLevel":"medium","tags":["culture","venue","lieux de decouverte et d initiation"],"source":"opendata.paris.fr/lieux-municipaux"}},{"type":"Feature","geometry":{"type":"Point","coordinates":[2.272874,48.846327]},"properties":{"id":"culture-19379","name":"Pavillon de l'eau","layer":"museums","type":"cultural-venue","address":"77 Avenue de Versailles","arrondissement":"16e","indoor":true,"accessible":true,"familyFriendly":false,"romantic":false,"quiet":true,"budgetLevel":"medium","tags":["culture","venue","lieux de decouverte et d initiation"],"source":"opendata.paris.fr/lieux-municipaux"}},{"type":"Feature","geometry":{"type":"Point","coordinates":[2.398542,48.858556]},"properties":{"id":"culture-2703","name":"Jardin naturel Pierre Emmanuel","layer":"museums","type":"cultural-venue","address":"120 rue de la Réunion","arrondissement":"20e","indoor":true,"accessible":true,"familyFriendly":false,"romantic":false,"quiet":true,"budgetLevel":"medium","tags":["culture","venue","lieux de decouverte et d initiation"],"source":"opendata.paris.fr/lieux-municipaux"}},{"type":"Feature","geometry":{"type":"Point","coordinates":[2.341373,48.88839]},"properties":{"id":"culture-1784","name":"Jardin sauvage Saint-Vincent","layer":"museums","type":"cultural-venue","address":"17, rue Saint-Vincent","arrondissement":"18e","indoor":true,"accessible":true,"familyFriendly":false,"romantic":false,"quiet":true,"budgetLevel":"medium","tags":["culture","venue","lieux de decouverte et d initiation"],"source":"opendata.paris.fr/lieux-municipaux"}},{"type":"Feature","geometry":{"type":"Point","coordinates":[2.443769,48.834921]},"properties":{"id":"culture-17576","name":"Maison Paris Nature","layer":"museums","type":"cultural-venue","address":"Pavillons 1 et 2 du Parc Floral de Paris, route de la Pyramide","arrondissement":"12e","indoor":true,"accessible":true,"familyFriendly":false,"romantic":false,"quiet":true,"budgetLevel":"medium","tags":["culture","venue","lieux de decouverte et d initiation"],"source":"opendata.paris.fr/lieux-municipaux"}},{"type":"Feature","geometry":{"type":"Point","coordinates":[2.383506,48.835808]},"properties":{"id":"culture-6619","name":"Bibliothèque de la maison du jardinage et du compostage","layer":"museums","type":"cultural-venue","address":"41, rue Paul Belmondo","arrondissement":"12e","indoor":true,"accessible":true,"familyFriendly":false,"romantic":false,"quiet":true,"budgetLevel":"medium","tags":["culture","venue","lieux de decouverte et d initiation"],"source":"opendata.paris.fr/lieux-municipaux"}},{"type":"Feature","geometry":{"type":"Point","coordinates":[2.417977,48.830509]},"properties":{"id":"culture-17513","name":"Parc zoologique de Paris","layer":"museums","type":"cultural-venue","address":"Route de la Ceinture du Lac","arrondissement":"12e","indoor":true,"accessible":true,"familyFriendly":false,"romantic":false,"quiet":true,"budgetLevel":"medium","tags":["culture","venue","lieux de decouverte et d initiation"],"source":"opendata.paris.fr/lieux-municipaux"}},{"type":"Feature","geometry":{"type":"Point","coordinates":[2.352848,48.857019]},"properties":{"id":"culture-17644","name":"Paris La Boutique","layer":"museums","type":"cultural-venue","address":"29 rue de Rivoli","arrondissement":"04e","indoor":true,"accessible":true,"familyFriendly":false,"romantic":false,"quiet":true,"budgetLevel":"medium","tags":["culture","venue","lieux de decouverte et d initiation"],"source":"opendata.paris.fr/lieux-municipaux"}},{"type":"Feature","geometry":{"type":"Point","coordinates":[2.3376,48.8606]},"properties":{"id":"museum-national-louvre","name":"Musée du Louvre","layer":"museums","type":"museum","indoor":true,"accessible":true,"familyFriendly":false,"romantic":false,"quiet":true,"budgetLevel":"high","tags":["museum","culture","indoor","national"],"source":"supplement-national-museums"}},{"type":"Feature","geometry":{"type":"Point","coordinates":[2.3266,48.86]},"properties":{"id":"museum-national-orsay","name":"Musée d'Orsay","layer":"museums","type":"museum","indoor":true,"accessible":true,"familyFriendly":false,"romantic":false,"quiet":true,"budgetLevel":"medium","tags":["museum","culture","indoor","national"],"source":"supplement-national-museums"}},{"type":"Feature","geometry":{"type":"Point","coordinates":[2.3522,48.8607]},"properties":{"id":"museum-national-pompidou","name":"Centre Pompidou","layer":"museums","type":"museum","indoor":true,"accessible":true,"familyFriendly":false,"romantic":false,"quiet":true,"budgetLevel":"medium","tags":["museum","culture","indoor","national"],"source":"supplement-national-museums"}},{"type":"Feature","geometry":{"type":"Point","coordinates":[2.3158,48.8553]},"properties":{"id":"museum-national-rodin","name":"Musée Rodin","layer":"museums","type":"museum","indoor":true,"accessible":true,"familyFriendly":false,"romantic":true,"quiet":true,"budgetLevel":"medium","tags":["museum","culture","indoor","national"],"source":"supplement-national-museums"}},{"type":"Feature","geometry":{"type":"Point","coordinates":[2.3225,48.8638]},"properties":{"id":"museum-national-orangerie","name":"Musée de l'Orangerie","layer":"museums","type":"museum","indoor":true,"accessible":true,"familyFriendly":false,"romantic":true,"quiet":true,"budgetLevel":"medium","tags":["museum","culture","indoor","national"],"source":"supplement-national-museums"}},{"type":"Feature","geometry":{"type":"Point","coordinates":[2.2978,48.8609]},"properties":{"id":"museum-national-quai-branly","name":"Musée du Quai Branly","layer":"museums","type":"museum","indoor":true,"accessible":true,"familyFriendly":false,"romantic":false,"quiet":true,"budgetLevel":"high","tags":["museum","culture","indoor","national"],"source":"supplement-national-museums"}},{"type":"Feature","geometry":{"type":"Point","coordinates":[2.3126,48.8567]},"properties":{"id":"museum-national-invalides","name":"Musée de l'Armée","layer":"museums","type":"museum","indoor":true,"accessible":true,"familyFriendly":false,"romantic":false,"quiet":true,"budgetLevel":"medium","tags":["museum","culture","indoor","national"],"source":"supplement-national-museums"}},{"type":"Feature","geometry":{"type":"Point","coordinates":[2.3878,48.8956]},"properties":{"id":"museum-national-science","name":"Cité des Sciences et de l'Industrie","layer":"museums","type":"museum","indoor":true,"accessible":true,"familyFriendly":true,"romantic":false,"quiet":true,"budgetLevel":"medium","tags":["museum","culture","indoor","national"],"source":"supplement-national-museums"}}]}