{"type":"FeatureCollection","features":[{"type":"Feature","geometry":{"type":"Point","coordinates":[2.3376,48.8606]},"properties":{"id":"museum-louvre-0","name":"Musée du Louvre","layer":"museums","type":"museum","arrondissement":"1er","indoor":true,"accessible":true,"familyFriendly":false,"romantic":false,"quiet":true,"budgetLevel":"high","tags":["museum","culture","indoor"],"source":"curated-paris-museums"}},{"type":"Feature","geometry":{"type":"Point","coordinates":[2.3266,48.86]},"properties":{"id":"museum-orsay-1","name":"Musée d'Orsay","layer":"museums","type":"museum","arrondissement":"7e","indoor":true,"accessible":true,"familyFriendly":false,"romantic":true,"quiet":true,"budgetLevel":"medium","tags":["museum","culture","indoor"],"source":"curated-paris-museums"}},{"type":"Feature","geometry":{"type":"Point","coordinates":[2.3522,48.8607]},"properties":{"id":"museum-pompidou-2","name":"Centre Pompidou","layer":"museums","type":"museum","arrondissement":"4e","indoor":true,"accessible":true,"familyFriendly":false,"romantic":false,"quiet":true,"budgetLevel":"medium","tags":["museum","culture","indoor"],"source":"curated-paris-museums"}},{"type":"Feature","geometry":{"type":"Point","coordinates":[2.3158,48.8553]},"properties":{"id":"museum-rodin-3","name":"Musée Rodin","layer":"museums","type":"museum","arrondissement":"7e","indoor":true,"accessible":true,"familyFriendly":false,"romantic":true,"quiet":true,"budgetLevel":"medium","tags":["museum","culture","indoor"],"source":"curated-paris-museums"}},{"type":"Feature","geometry":{"type":"Point","coordinates":[2.3225,48.8638]},"properties":{"id":"museum-orsay-4","name":"Musée de l'Orangerie","layer":"museums","type":"museum","arrondissement":"1er","indoor":true,"accessible":true,"familyFriendly":false,"romantic":true,"quiet":true,"budgetLevel":"medium","tags":["museum","culture","indoor"],"source":"curated-paris-museums"}},{"type":"Feature","geometry":{"type":"Point","coordinates":[2.3622,48.8573]},"properties":{"id":"museum-carnavalet-5","name":"Musée Carnavalet","layer":"museums","type":"museum","arrondissement":"3e","indoor":true,"accessible":true,"familyFriendly":true,"romantic":false,"quiet":true,"budgetLevel":"low","tags":["museum","culture","indoor"],"source":"curated-paris-museums"}},{"type":"Feature","geometry":{"type":"Point","coordinates":[2.344,48.8503]},"properties":{"id":"museum-cluny-6","name":"Musée de Cluny","layer":"museums","type":"museum","arrondissement":"5e","indoor":true,"accessible":true,"familyFriendly":false,"romantic":false,"quiet":true,"budgetLevel":"medium","tags":["museum","culture","indoor"],"source":"curated-paris-museums"}},{"type":"Feature","geometry":{"type":"Point","coordinates":[2.3625,48.8597]},"properties":{"id":"museum-picasso-7","name":"Musée Picasso","layer":"museums","type":"museum","arrondissement":"3e","indoor":true,"accessible":true,"familyFriendly":false,"romantic":false,"quiet":true,"budgetLevel":"medium","tags":["museum","culture","indoor"],"source":"curated-paris-museums"}},{"type":"Feature","geometry":{"type":"Point","coordinates":[2.3146,48.8661]},"properties":{"id":"museum-petit-palais-8","name":"Petit Palais","layer":"museums","type":"museum","arrondissement":"8e","indoor":true,"accessible":true,"familyFriendly":true,"romantic":true,"quiet":true,"budgetLevel":"low","tags":["museum","culture","indoor"],"source":"curated-paris-museums"}},{"type":"Feature","geometry":{"type":"Point","coordinates":[2.3126,48.8567]},"properties":{"id":"museum-invalides-9","name":"Musée de l'Armée","layer":"museums","type":"museum","arrondissement":"7e","indoor":true,"accessible":true,"familyFriendly":false,"romantic":false,"quiet":true,"budgetLevel":"medium","tags":["museum","culture","indoor"],"source":"curated-paris-museums"}},{"type":"Feature","geometry":{"type":"Point","coordinates":[2.3878,48.8956]},"properties":{"id":"museum-science-10","name":"Cité des Sciences","layer":"museums","type":"museum","arrondissement":"19e","indoor":true,"accessible":true,"familyFriendly":true,"romantic":false,"quiet":true,"budgetLevel":"medium","tags":["museum","culture","indoor"],"source":"curated-paris-museums"}},{"type":"Feature","geometry":{"type":"Point","coordinates":[2.2978,48.8609]},"properties":{"id":"museum-quai-branly-11","name":"Musée du Quai Branly","layer":"museums","type":"museum","arrondissement":"7e","indoor":true,"accessible":true,"familyFriendly":false,"romantic":false,"quiet":true,"budgetLevel":"high","tags":["museum","culture","indoor"],"source":"curated-paris-museums"}}]}