{"type":"FeatureCollection","features":[{"type":"Feature","geometry":{"type":"Point","coordinates":[2.263,48.847]},"properties":{"id":"noise-auteuil","name":"Auteuil","layer":"noise","type":"noise-station","noiseLevel":87.1,"quiet":false,"romantic":false,"indoor":false,"tags":["noise","loud"],"source":"opendata.paris.fr/bruit-evolution + curated"}},{"type":"Feature","geometry":{"type":"Point","coordinates":[2.413,48.848]},"properties":{"id":"noise-vincennes","name":"Porte de Vincennes","layer":"noise","type":"noise-station","noiseLevel":83.4,"quiet":false,"romantic":false,"indoor":false,"tags":["noise","loud"],"source":"opendata.paris.fr/bruit-evolution + curated"}},{"type":"Feature","geometry":{"type":"Point","coordinates":[2.389,48.832]},"properties":{"id":"noise-soulie","name":"Rue Soulie","layer":"noise","type":"noise-station","noiseLevel":78.9,"quiet":false,"romantic":false,"indoor":false,"tags":["noise","loud"],"source":"opendata.paris.fr/bruit-evolution + curated"}},{"type":"Feature","geometry":{"type":"Point","coordinates":[2.349,48.867]},"properties":{"id":"noise-sebastopol","name":"Sébastopol","layer":"noise","type":"noise-station","noiseLevel":77.9,"quiet":false,"romantic":false,"indoor":false,"tags":["noise","loud"],"source":"opendata.paris.fr/bruit-evolution + curated"}},{"type":"Feature","geometry":{"type":"Point","coordinates":[2.275,48.858]},"properties":{"id":"noise-anatole","name":"Anatole France","layer":"noise","type":"noise-station","noiseLevel":76.9,"quiet":false,"romantic":false,"indoor":false,"tags":["noise","loud"],"source":"opendata.paris.fr/bruit-evolution + curated"}},{"type":"Feature","geometry":{"type":"Point","coordinates":[2.329,48.857]},"properties":{"id":"noise-rivoli","name":"Rivoli","layer":"noise","type":"noise-station","noiseLevel":76.6,"quiet":false,"romantic":false,"indoor":false,"tags":["noise","loud"],"source":"opendata.paris.fr/bruit-evolution + curated"}},{"type":"Feature","geometry":{"type":"Point","coordinates":[2.344,48.853]},"properties":{"id":"noise-stmichel","name":"Saint-Michel","layer":"noise","type":"noise-station","noiseLevel":74.6,"quiet":false,"romantic":false,"indoor":false,"tags":["noise","moderate"],"source":"opendata.paris.fr/bruit-evolution + curated"}},{"type":"Feature","geometry":{"type":"Point","coordinates":[2.337,48.846]},"properties":{"id":"noise-luxembourg","name":"Luxembourg (quiet)","layer":"noise","type":"noise-station","noiseLevel":62,"quiet":true,"romantic":true,"indoor":false,"tags":["noise","quiet"],"source":"opendata.paris.fr/bruit-evolution + curated"}},{"type":"Feature","geometry":{"type":"Point","coordinates":[2.383,48.881]},"properties":{"id":"noise-buttes","name":"Buttes-Chaumont (quiet)","layer":"noise","type":"noise-station","noiseLevel":58.5,"quiet":true,"romantic":true,"indoor":false,"tags":["noise","quiet"],"source":"opendata.paris.fr/bruit-evolution + curated"}},{"type":"Feature","geometry":{"type":"Point","coordinates":[2.362,48.857]},"properties":{"id":"noise-marais","name":"Le Marais (moderate)","layer":"noise","type":"noise-station","noiseLevel":68,"quiet":false,"romantic":false,"indoor":false,"tags":["noise","moderate"],"source":"opendata.paris.fr/bruit-evolution + curated"}}]}