{"type":"FeatureCollection","features":[{"type":"Feature","geometry":{"type":"Point","coordinates":[2.263,48.847]},"properties":{"id":"noise-auteuil","name":"Auteuil","layer":"noise","type":"noise-station","noiseLevel":82.2,"quiet":false,"romantic":false,"indoor":false,"tags":["noise","loud"],"source":"opendata.paris.fr/bruit-evolution"}},{"type":"Feature","geometry":{"type":"Point","coordinates":[2.413,48.848]},"properties":{"id":"noise-vincennes","name":"Porte de Vincennes","layer":"noise","type":"noise-station","noiseLevel":84.1,"quiet":false,"romantic":false,"indoor":false,"tags":["noise","loud"],"source":"opendata.paris.fr/bruit-evolution"}},{"type":"Feature","geometry":{"type":"Point","coordinates":[2.309,48.879]},"properties":{"id":"noise-malesherbes","name":"Malesherbes","layer":"noise","type":"noise-station","noiseLevel":"73.9","quiet":false,"romantic":false,"indoor":false,"tags":["noise","moderate"],"source":"opendata.paris.fr/bruit-evolution"}},{"type":"Feature","geometry":{"type":"Point","coordinates":[2.304,48.879]},"properties":{"id":"noise-courcelles","name":"Courcelles","layer":"noise","type":"noise-station","noiseLevel":71.8,"quiet":false,"romantic":false,"indoor":false,"tags":["noise","moderate"],"source":"opendata.paris.fr/bruit-evolution"}},{"type":"Feature","geometry":{"type":"Point","coordinates":[2.389,48.832]},"properties":{"id":"noise-soulie","name":"Rue Soulie","layer":"noise","type":"noise-station","noiseLevel":75,"quiet":false,"romantic":false,"indoor":false,"tags":["noise","loud"],"source":"opendata.paris.fr/bruit-evolution"}},{"type":"Feature","geometry":{"type":"Point","coordinates":[2.348,48.871]},"properties":{"id":"noise-poissoniere","name":"Poissonnière","layer":"noise","type":"noise-station","noiseLevel":74.3,"quiet":false,"romantic":false,"indoor":false,"tags":["noise","moderate"],"source":"opendata.paris.fr/bruit-evolution"}},{"type":"Feature","geometry":{"type":"Point","coordinates":[2.349,48.867]},"properties":{"id":"noise-sebastopol","name":"Sébastopol","layer":"noise","type":"noise-station","noiseLevel":75.2,"quiet":false,"romantic":false,"indoor":false,"tags":["noise","loud"],"source":"opendata.paris.fr/bruit-evolution"}},{"type":"Feature","geometry":{"type":"Point","coordinates":[2.275,48.858]},"properties":{"id":"noise-anatolefrance","name":"Anatole France","layer":"noise","type":"noise-station","noiseLevel":73.4,"quiet":false,"romantic":false,"indoor":false,"tags":["noise","moderate"],"source":"opendata.paris.fr/bruit-evolution"}},{"type":"Feature","geometry":{"type":"Point","coordinates":[2.329,48.857]},"properties":{"id":"noise-rivoli","name":"Rivoli","layer":"noise","type":"noise-station","noiseLevel":71.2,"quiet":false,"romantic":false,"indoor":false,"tags":["noise","moderate"],"source":"opendata.paris.fr/bruit-evolution"}},{"type":"Feature","geometry":{"type":"Point","coordinates":[2.348,48.857]},"properties":{"id":"noise-gesvres","name":"Gesvres","layer":"noise","type":"noise-station","noiseLevel":76.4,"quiet":false,"romantic":false,"indoor":false,"tags":["noise","loud"],"source":"opendata.paris.fr/bruit-evolution"}},{"type":"Feature","geometry":{"type":"Point","coordinates":[2.333,48.854]},"properties":{"id":"noise-stgermain","name":"Saint-Germain","layer":"noise","type":"noise-station","noiseLevel":75.8,"quiet":false,"romantic":false,"indoor":false,"tags":["noise","loud"],"source":"opendata.paris.fr/bruit-evolution"}},{"type":"Feature","geometry":{"type":"Point","coordinates":[2.344,48.853]},"properties":{"id":"noise-stmichel","name":"Saint-Michel","layer":"noise","type":"noise-station","noiseLevel":72.5,"quiet":false,"romantic":false,"indoor":false,"tags":["noise","moderate"],"source":"opendata.paris.fr/bruit-evolution"}},{"type":"Feature","geometry":{"type":"Point","coordinates":[2.369,48.853]},"properties":{"id":"noise-bastille","name":"Bastille","layer":"noise","type":"noise-station","noiseLevel":74,"quiet":false,"romantic":false,"indoor":false,"tags":["noise","moderate"],"source":"opendata.paris.fr/bruit-evolution"}},{"type":"Feature","geometry":{"type":"Point","coordinates":[2.301,48.842]},"properties":{"id":"noise-fremicourt","name":"Frémicourt","layer":"noise","type":"noise-station","noiseLevel":71.3,"quiet":false,"romantic":false,"indoor":false,"tags":["noise","moderate"],"source":"opendata.paris.fr/bruit-evolution"}},{"type":"Feature","geometry":{"type":"Point","coordinates":[2.301,48.842]},"properties":{"id":"noise-lecourbe","name":"Lecourbe","layer":"noise","type":"noise-station","noiseLevel":71.9,"quiet":false,"romantic":false,"indoor":false,"tags":["noise","moderate"],"source":"opendata.paris.fr/bruit-evolution"}}]}